service_id,store_id,service_group,merchant_name,merchant_address,store_name,store_address,store_longitude,store_latitude
1058241667815469540,249887925492461203,other offline payment services,CÔNG TY CP TMDV TVTK THỜI TRANG VIỆT,"189A Hai Bà Trưng , P.6, Quận 3 TPHCM",Concept Nguyễn Trãi Cần Thơ,"41-41A-43 Nguyễn Trãi, Q. Ninh Kiều, Cần Thơ"," 105.785046",10.040508
1058241667815469540,6272474026035536581,other offline payment services,CÔNG TY CP TMDV TVTK THỜI TRANG VIỆT,"189A Hai Bà Trưng , P.6, Quận 3 TPHCM",Concept Hậu Giang,"Số 410 Hậu Giang, Phường 12, Quận 6, Tp. HCM"," 106.638935",10.749251
8073873840719601655,2217087971996193230,beverage,HỘ KINH DOANH - QUÁCH THỊ HƯƠNG DUYÊN,"444 Hoàng Văn Thụ, Phường 2, Quận Tân Bình, Thành Phố Hồ Chí Minh, VIỆT NAM",Sharetea Hoàng Văn Thụ,"444 Hoàng Văn Thụ, Phường 4, Quận Tân Bình, Thành Phố Hồ Chí Minh, VIỆT NAM"," 106.655742",10.795501
1058241667815469540,7296552596579579660,other offline payment services,CÔNG TY CP TMDV TVTK THỜI TRANG VIỆT,"189A Hai Bà Trưng , P.6, Quận 3 TPHCM",Concept Cách Mạng tháng 8 HCM,"Số 484 - 486 Cách Mạng Tháng Tám, Phường 11, Quận 3, Tp. HCM"," 106.668518",10.784919
1058241667815469540,4707467693322385152,other offline payment services,CÔNG TY CP TMDV TVTK THỜI TRANG VIỆT,"189A Hai Bà Trưng , P.6, Quận 3 TPHCM",Concept Vạnh Hạnh Mall,"TTTM,Số 11 Sư Vạn Hạnh, Đường 3/2, Phường 12, Quận 10, TPHCM"," 106.669971",10.769976
7310160001796817277,2602217615037686284,beverage,CÔNG TY TNHH CÀ PHÊ ĐEN ĐÁ,"96 Hàm Nghi , Phường Bến Nghé , Quận 1, Tp.HCM",Đen Đá Coffee Lê văn Sỹ,"110 Lê Văn Sỹ, P.10, Quận Phú Nhuận"," 106.672007"," 10.791683"
1058241667815469540,5148561421899046534,other offline payment services,CÔNG TY CP TMDV TVTK THỜI TRANG VIỆT,"189A Hai Bà Trưng , P.6, Quận 3 TPHCM",Concept Nguyễn Trãi,"Số 131, Nguyễn Trãi, Phường 2, Quận 5, Tp. HCM "," 106.679356",10.757695
1058241667815469540,468351869602724625,other offline payment services,CÔNG TY CP TMDV TVTK THỜI TRANG VIỆT,"189A Hai Bà Trưng , P.6, Quận 3 TPHCM",Concept Hai Bà Trưng,"Số 189A Hai Bà Trưng, Phường 6, Quận 3, Tp. HCM "," 106.694070",10.786008
2094705476432891136,2537927188160185009,beverage,Công Ty TNHH Cây Đào Đỏ,"257 Thống Nhất, Phường 11, Gò Vấp, Tp. HCM",I Love Kem Đinh Tiên Hoàng,"207 Đinh Tiên Hoàng ,P Tân Định Q.1, Tp. HCM"," 106.695814",10.792114
7310160001796817277,5006294098972627305,beverage,CÔNG TY TNHH CÀ PHÊ ĐEN ĐÁ,"96 Hàm Nghi , Phường Bến Nghé , Quận 1, Tp.HCM",Đen Đá Coffee Pasteur,"182 Pasteur, P.Bến Nghé, Quận 1"," 106.698217",10.778466
8203460032407458181,3699924941261806407,null,CÔNG TY TNHH ĐẦU TƯ VÀ PHÁT TRIỂN BẦU TRỜI XANH,"124 Đường Trần Não, Khu phố 2, phường Bình An, Quận 2, Hồ Chí Minh, Việt Nam",3Sạch Tresor,"39-39B Bến Vân Đồn, Phường 12, Quận 4, Thành Phố Hồ Chí Minh, VIỆT NAM"," 106.703402",10.766887
1058241667815469540,8045406540451346235,other offline payment services,CÔNG TY CP TMDV TVTK THỜI TRANG VIỆT,"189A Hai Bà Trưng , P.6, Quận 3 TPHCM",Concept VivoCity 1058,"VivoCity 1058, Đại Lộ Nguyễn Văn Linh, Phường Tân Phong, Quận 7, Tp. HCM"," 106.703626",10.730283
4069843186865860424,6137354604427447771,food,CÔNG TY CỔ PHẦN THỰC PHẨM SUNDO,"34/6 Trần Khánh Dư, Phường Tân Định, Quận 1, TPHCM",Savoure XVNT,"220 XVNT, P.21 Quận Bình Thạnh, Tp.HCM."," 106.711187",10.798543
1058241667815469540,3305360375191824643,other offline payment services,CÔNG TY CP TMDV TVTK THỜI TRANG VIỆT,"189A Hai Bà Trưng , P.6, Quận 3 TPHCM",Concept Crescent mall,"Crescent mall. Số 101 Tôn Dật Tiên, Phường Tân Phú, Quận 7, Tp. HCM "," 106.718753",10.728745
8203460032407458181,5560552259059895242,null,CÔNG TY TNHH ĐẦU TƯ VÀ PHÁT TRIỂN BẦU TRỜI XANH,"124 Đường Trần Não, Khu phố 2, phường Bình An, Quận 2, Hồ Chí Minh, Việt Nam",3Sạch Vinhomes Park 1,"720A Điện Biên Phủ, Phường 22, Quận Bình Thạnh, Thành Phố Hồ Chí Minh, VIỆT NAM"," 106.722098",10.791140
1058241667815469540,5220750119319614043,other offline payment services,CÔNG TY CP TMDV TVTK THỜI TRANG VIỆT,"189A Hai Bà Trưng , P.6, Quận 3 TPHCM",Ninomaxx Hùng Vương Huế,"63 Hùng Vương , Phú Hội , Huế "," 107.593687",16.464870
1058241667815469540,2131897066458799865,other offline payment services,CÔNG TY CP TMDV TVTK THỜI TRANG VIỆT,"189A Hai Bà Trưng , P.6, Quận 3 TPHCM",Ninomaxx Bà Triệu Huế,"Big C Huế, Khu quy hoạch Bà Triệu, Hùng Vương, Huế"," 107.599350",16.459788
1324711243256079431,7041754297301750005,shopping,CÔNG TY TNHH ROUTINE VIỆT NAM,"68 Nguyễn Huệ, Phường Bến Nghé, Quận 1, TP Hồ Chí Minh",Routine Rạch Giá,"190 Nguyễn Trung Trực, phường Vĩnh Bảo, Rạch Giá, Kiên Giang, Việt Nam",105.0887577,10.0018786
5654538597012118714,7485747261297066963,beverage,Công Ty TNHH BoBapop,"115 Cao Thắng, Phường 11, Quận  10, TP.HCM",Bobapop 3/6 A Tôn Đức Thắng,"3/6 A Tôn Đức Thắng, Phường Mỹ Bình, Thành phố Long Xuyên,An Giang",105.4348523,10.3889939
6573947514783036540,2924007050849236074,null,Công Ty CP Những Hạt Cà Phê Nói Chuyện,"29 ngõ 93 phố Vũ Hữu  Khuất Duy Tiến, Phường Thanh Xuân Bắc, Quận Thanh Xuân, Hà Nội, VIỆT NAM",TWTTER BEANS COFFEE HOLA,"Khu DV04 khu CNC Láng Hòa Lạc, Xã Thạch Hoà, Huyện Thạch Thất, Hà Nội, VIỆT NAM",105.5310822,21.007833
4730332944869925968,9016913884991478105,beverage,Chi nhánh Nghệ An - Công ty Cổ phần Sáng tạo Ý tưởng Kinh doanh,"Số 1  Lê Hồng Phong, Phường Hưng Bình, Thành phố Vinh, Nghệ An, VIỆT NAM",Gong Cha Vinh,"1 Lê Hồng Phong, Phường Hưng Bình, Thành phố Vinh, Nghệ An, VIỆT NAM",105.6773999,18.6765424
1529371805079198010,5628412941614358171,fnb,TORANO,"1165 Giải Phóng, Phường Thịnh Liệt, Quận Hoàng Mai, Hà Nội, VIỆT NAM",Torano Hoài Đức,"Khu 7 Thị Trấn Trôi, Xã Yên Sở, Huyện Hoài Đức, Hà Nội, VIỆT NAM",105.7061651,21.0693027
1529371805079198010,8376045383107075520,fnb,TORANO,"1165 Giải Phóng, Phường Thịnh Liệt, Quận Hoàng Mai, Hà Nội, VIỆT NAM",Torano Cầu Diễn,"101  Đường 32, PHƯỜNG PHÚC DIỄN, QUẬN BẮC TỪ LIÊM, Hà Nội, VIỆT NAM",105.7511685,21.0453671
4223642432792532905,6904388929075517115,fnb,Cửa Hàng Fabi,"Ô Số 2 -SO1-CT3 Khu Đô Thị Mới An Hưng, Phường La Khê, Quận Hà Đông, Hà Nội, VIỆT NAM",Fabi Mart,"Ô Số 2 -SO1-CT3 Khu Đô Thị Mới An Hưng, Tố Hữu, Phường La Khê, Quận Hà Đông, Hà Nội, VIỆT NAM",105.7547077,20.9730685
2934243555093972662,130291123518762999,fnb,Gà Mạnh Hoạch,Số 66 Ngõ 34 Phương Mai Phương Liên Đống Đa Hà Nội,Gà Mạnh Hoạch,"Lô 211 tổ 4 là khê La Khê, Phường La Khê, Quận Hà Đông, Hà Nội, VIỆT NAM",105.7615252,20.9724114
1331731186241134178,2921708118493888372,other offline payment services,"CÔNG TY TNHH BÁN LẺ SAKUKO VIỆT NAM ","Tầng 4 tòa nhà Trung Yên Plaza Lô đất o17, khu đô thị Trung Yên, , Phường Trung Hoà, Quận Cầu Giấy, Hà Nội, VIỆT NAM",Sakuko Quang Trung,"494 Quang Trung, Phường La Khê, Quận Hà Đông, Hà Nội, VIỆT NAM",105.7629315,20.9609062
6947600923794307672,6812675735883377379,fnb,Công ty cổ phần KOMBO,"60 Lê Văn Thiêm, Phường Nhân Chính, Quận Thanh Xuân, Hà Nội",Kombo Nguyễn Cơ Thạch,"Kiot C3-4 Chung cư C3 Nguyễn Cơ Thạch, Mỹ Đình, Nam Từ Liêm, Hà Nội",105.7649738,21.0317782
417023939004436036,9133434177839340540,fnb,Đức Trang Bakery,"Tầng 1 Chung cư C5 Khu đô thị Mỹ Đình 1 Nguyễn Cơ Thạch, PHƯỜNG CẦU DIỄN, Quận Nam Từ Liêm, Hà Nội, VIỆT NAM",Đức Trang Bakery,"Tầng 1 Chung cư C5 Khu đô thị Mỹ Đình 1 Nguyễn Cơ Thạch, PHƯỜNG CẦU DIỄN, Quận Nam Từ Liêm, Hà Nội, VIỆT NAM",105.7653001,21.0341329
6573947514783036540,6612695632743857561,null,Công Ty CP Những Hạt Cà Phê Nói Chuyện,"29 ngõ 93 phố Vũ Hữu  Khuất Duy Tiến, Phường Thanh Xuân Bắc, Quận Thanh Xuân, Hà Nội, VIỆT NAM",TWTTER BEANS COFFEE MĐI1,"Tầng 1, tòa nhà Golden Field 24 Nguyễn Cơ Thạch, Phường Mỹ Đình 2, Quận Nam Từ Liêm, Hà Nội, VIỆT NAM",105.7657076,21.0351615
2444871135670595807,1394128976689544610,other offline payment services,CÔNG TY CỔ PHẦN THƯƠNG MẠI GLOBAL FASHION,"96 Cao Thắng, Phường 4, Quận 3, Thành Phố Hồ Chí Minh, VIỆT NAM",VAS Đồng Tháp,"298 Nguyễn Sinh Sắc, Phường 1, Thành phố Sa Đéc, Đồng Tháp, VIỆT NAM",105.766564,10.290503
2170835392571376570,1150046870724489278,fnb,MR GOOD TEA,"CT1A-DN2 Hàm Nghi, Phường Mỹ Đình 2, Quận Nam Từ Liêm, Hà Nội, VIỆT NAM",MR GOOD TEA,"CT1A-DN2 Hàm Nghi, Phường Mỹ Đình 2, Quận Nam Từ Liêm, Hà Nội, VIỆT NAM",105.7683571,21.0333092
4942158102627391859,6625767933899464658,shopping,Công ty Cổ phần thế giới Phụ nữ,"25 Tôn Đản, phường 13, Quận 4, Hồ Chí Minh, Việt Nam",iBasic - CH Mậu Thân,"17 Mậu Thân, Ninh Kiều, Cần Thơ, Việt Nam",105.7740532,10.0332877
255344331244246119,3264167874934461701,beverage,Hộ kinh doanh Trà Kim Cương,"15 Hồng Bàng, Phường 1, Quận Bình Thạnh, Thành Phố Hồ Chí Minh, VIỆT NAM",Gong Cha Cần Thơ,"P1-03, Vincom Center Cần Thơ, Số 209 30/4, Phường Xuân Khánh, Quận Ninh Kiều, Cần Thơ, VIỆT NAM",105.7746583,10.0245285
7640837096380101159,6713968858687621486,other offline payment services,CÔNG TY TNHH DỊCH VỤ THƯƠNG MẠI GOOD GOODS,"37 đường 16 khu phố 4, Phường Tân Phú, Quận 7",Daiso Vincom Xuân Khánh,"Daiso Vincom Xuân Khánh, 209 Đường 30 Tháng 4, Cần Thơ",105.774923,10.024853
4719769865534913696,7560007221183666940,food,Công Ty TNHH Đức Nhân,"23L Hai Bà Trưng, Phường Đồng Xuân, Quận Hoàn Kiếm, Hà Nội, VIỆT NAM",Al Fresco's Royal City,"72 Nguyễn Trãi, Phường Thượng Đình, Quận Thanh Xuân, Hà Nội, VIỆT NAM",105.775949,21.013599
8532453824534521631,8199451798412826103,fnb,"Công Ty Trách Nhiệm Hữu Hạn SAVOR Việt Nam ","Số 108 Nguyễn Chí Thanh, Phường Láng Thượng, Quận Đống Đa, Hà Nội, VIỆT NAM",Savor 126 Hồ Tùng mậu,"126 Đường Hồ Tùng Mậu, Mai Dịch, Cầu Giấy, Hà Nội, Việt Nam",105.776154,21.037171
8096805314010429417,7260964240571178362,food,CÔNG TY TNHH PARIS BAGUETTE HÀ NỘI,"Tầng 9, Tòa nhà văn phòng AC  Lô A1A cụm TTCN&CNN, Phường Dịch Vọng Hậu, Quận Cầu Giấy, Hà Nội, VIỆT NAM",Paris Baguette Mỹ Đình,"B101 The Manor Mỹ Đình Khu đô thị Mỹ Đình, PHƯỜNG MỄ TRÌ, Quận Nam Từ Liêm, Hà Nội, VIỆT NAM",105.776583,21.014968
5654538597012118714,2171825800834524522,beverage,Công Ty TNHH BoBapop,"115 Cao Thắng, Phường 11, Quận  10, TP.HCM",Bobapop 64 Trần Phú,"64 Trần Phú, Thành Phố Thanh Hoá, Tỉnh Thanh Hóa, VIỆT NAM",105.7768926,19.8097035
7928728133347645647,3329159537100791925,fnb,Bún Bò Huế,"90 ngõ 165 chùa bộc, Phường Quang Trung, Quận Đống Đa, Hà Nội, VIỆT NAM",Bún Bò Huế,"141 Lê Văn Hiến, PHƯỜNG CỔ NHUẾ 1, QUẬN BẮC TỪ LIÊM, Hà Nội, VIỆT NAM",105.7771498,21.0743039
6235022066769294325,823600610171305654,beverage,Chi nhánh Thanh Hóa - Công ty Cổ phần Sáng tạo Ý tưởng Kinh doanh,"Căn PG1-11 Shophouse Thanh Hóa, Khu đô thị mới Phường Điện Biên, Số 27 Trần Phú, Phường Điện Biên, T Trần Phú, Phường Điện Biên, Thành phố Thanh Hóa, Thanh Hóa, VIỆT NAM",Gong Cha Thanh Hóa,"Căn PG1-11 Shophouse Thanh Hóa, Khu đô thị mới Phường Điện Biên, Số 27 Trần Phú, Phường Điện Biên, Thành phố Thanh Hóa, Thanh Hóa, VIỆT NAM",105.7774819,19.8094008
6778625465845016942,2338728030581305211,food,Công Ty Cổ Phần Alfresco's Á Châu,"23L Hai Bà Trưng, Phường Đồng Xuân, Quận Hoàn Kiếm, Hà Nội, VIỆT NAM",Al Fresco's Garden,"1 Mễ Trì, Phường Mỹ Đình 2, Quận Nam Từ Liêm, Hà Nội, VIỆT NAM",105.778211,21.015695
6573947514783036540,4540151790580534769,null,Công Ty CP Những Hạt Cà Phê Nói Chuyện,"29 ngõ 93 phố Vũ Hữu  Khuất Duy Tiến, Phường Thanh Xuân Bắc, Quận Thanh Xuân, Hà Nội, VIỆT NAM",TWTTER BEANS COFFEE ANBI,"Tầng 1, Tòa A5, An Bình City, 234 Phạm Văn Đồng, PHƯỜNG CỔ NHUẾ 1, QUẬN BẮC TỪ LIÊM, Hà Nội, VIỆT NAM",105.7783275,21.0502095
6573947514783036540,1844443705570595489,null,Công Ty CP Những Hạt Cà Phê Nói Chuyện,"29 ngõ 93 phố Vũ Hữu  Khuất Duy Tiến, Phường Thanh Xuân Bắc, Quận Thanh Xuân, Hà Nội, VIỆT NAM",TWTTER BEANS COFFEE SODA,"Tầng 1, tòa nhà Sông Đà đường Phạm Hùng, Phường Mỹ Đình 1, Quận Nam Từ Liêm, Hà Nội, VIỆT NAM",105.7809735,21.0177304
8532453824534521631,7400878708855813666,fnb,"Công Ty Trách Nhiệm Hữu Hạn SAVOR Việt Nam ","Số 108 Nguyễn Chí Thanh, Phường Láng Thượng, Quận Đống Đa, Hà Nội, VIỆT NAM",Savor Hoàng Quốc Việt,"435 Hoàng Quốc Việt, Cầu Giấy, Hà Nội, Việt Nam",105.7828373,21.0460538
255344331244246119,7988231169309837734,beverage,Hộ kinh doanh Trà Kim Cương,"15 Hồng Bàng, Phường 1, Quận Bình Thạnh, Thành Phố Hồ Chí Minh, VIỆT NAM",Gong Cha Cần Thơ,"P1-03, Vincom Center Cần Thơ, Số 209 30/4, Phường Xuân Khánh, Quận Ninh Kiều, Cần Thơ, VIỆT NAM",105.7831432,10.0151132
9107214669541149753,2868227013912667119,food,CÔNG TY CỔ PHẦN FC & KMEAT VIỆT NAM,"230 Phố Xá Đàn, Phường Phương Liên, Quận Đống Đa, Hà Nội, VIỆT NAM","FOODCENTER TRẦN PHÚ		","85  Trần Phú, Phường Hà Cầu, Quận Hà Đông, Hà Nội, VIỆT NAM",105.7839691,20.977221
1058241667815469540,4572513983895587949,other offline payment services,CÔNG TY CP TMDV TVTK THỜI TRANG VIỆT,"189A Hai Bà Trưng , P.6, Quận 3 TPHCM",Concept Hưng Phúc 1 Cần Thơ,"Shop 29, lô số 01, KDC Hưng Phúc 1, P Hưng Phú, quận Cái Răng, Cần Thơ",105.784561,10.014268
6573947514783036540,82578457097144261,null,Công Ty CP Những Hạt Cà Phê Nói Chuyện,"29 ngõ 93 phố Vũ Hữu  Khuất Duy Tiến, Phường Thanh Xuân Bắc, Quận Thanh Xuân, Hà Nội, VIỆT NAM",TWTTER BEANS COFFEE  VIEA,"Tầng 1 Tòa Nhà Việt Á Duy Tân, Phường Dịch Vọng Hậu, Quận Cầu Giấy, Hà Nội, VIỆT NAM",105.7848423,21.0306348
4545526623053894407,2593451281685614696,food,"CÔNG TY TNHH MỘT THÀNH VIÊN DỊCH VỤ TRÚC ANH	","42 Trần Văn Khéo , Phường Cái Khế, Quận Ninh Kiều, Cần Thơ, VIỆT NAM",DON CHICKEN Trân Văn Khéo,"42 Trần Văn Khéo, Phường Cái Khế, Quận Ninh Kiều, Cần Thơ, VIỆT NAM",105.785529,10.045196
6547291063756653115,2999652339764975737,food,CÔNG TY CỔ PHẦN BWS VIỆT NAM,"77  Trần Nhân Tôn , Phường 9, Quận 5, Thành Phố Hồ Chí Minh, VIỆT NAM",SCT," Sense City - Tầng trệt, số 01   Hòa Bình, Phường Tân An, Quận Ninh Kiều, Cần Thơ, VIỆT NAM",105.7857227,10.034443
4942158102627391859,1402945945190851137,shopping,Công ty Cổ phần thế giới Phụ nữ,"25 Tôn Đản, phường 13, Quận 4, Hồ Chí Minh, Việt Nam",iBasic - Vincom skylake HN,"L2-09A, Tầng L2, TTTM Vincom Plaza Skylake, Khu đô thị mới Cầu Giấy, Phường Mỹ Đình 1, Quận Nam Từ L",105.78634,21.0100492
8736972261938279055,8033090100392966550,fnb,MASTER TEA,"24B Lò Đúc, Phường Phạm Đình Hổ, Quận Hai Bà Trưng, Hà Nội, VIỆT NAM",Master Tea ( Trần Quốc Hoàn ),"Số 75 Trần Quốc Hoàn, Dịch Vọng Hậu, Cầu Giấy, Hà Nội",105.7866561,21.0415987
1492534056723042530,7583237550121164865,fnb,Lẩu cá kèo và bánh tráng Trảng Bàng,"Phòng 408 nhà G6A Nguyên Hồng, Phường Láng Hạ, Quận Đống Đa, Hà Nội, VIỆT NAM",Lẩu cá kèo và bánh tráng trảng bàng,"Nhà số 7 khu B liền kề A10 Nam Trung Yên, Phường Trung Hoà, Quận Cầu Giấy, Hà Nội, VIỆT NAM",105.7879608,21.0180379
1529371805079198010,1956888802571263055,fnb,TORANO,"1165 Giải Phóng, Phường Thịnh Liệt, Quận Hoàng Mai, Hà Nội, VIỆT NAM",Torano 59 Xuân Thủy,"59 Xuân Thủy, Phường Dịch Vọng Hậu, Quận Cầu Giấy, Hà Nội, VIỆT NAM",105.7882002,21.0362066
4719769865534913696,3185524971768212808,food,Công Ty TNHH Đức Nhân,"23L Hai Bà Trưng, Phường Đồng Xuân, Quận Hoàn Kiếm, Hà Nội, VIỆT NAM",Al Fresco's Cầu Giấy,"106  Trần Thái Tông, Phường Dịch Vọng Hậu, Quận Cầu Giấy, Hà Nội, VIỆT NAM",105.788293,21.032066
7272637017843485142,838193718327769282,fnb,Công ty Cổ Phần V-Food Việt Nam,"Số 20, Ngõ 145 Nguyễn Văn Cừ, Phường Ngọc Lâm, Quận Long Biên, Hà Nội, VIỆT NAM",Luôn Tươi Sạch,"72 Trần Thái Tông, Phường Dịch Vọng Hậu, Quận Cầu Giấy, Hà Nội, VIỆT NAM",105.7888653,21.0339003
2924970720588960871,3798427279734602580,fnb,Chew tea,"số 7 B4 ngõ 201 trần quốc hoàn, Phường Dịch Vọng, Quận Cầu Giấy, Hà Nội, VIỆT NAM"," Chew tea","7B4 Trần Quốc Hoàn, Phường Dịch Vọng, Quận Cầu Giấy, Hà Nội, VIỆT NAM",105.7891452,21.0415937
1529371805079198010,7573064886705871436,fnb,TORANO,"1165 Giải Phóng, Phường Thịnh Liệt, Quận Hoàng Mai, Hà Nội, VIỆT NAM",Torano 241 Trần Đăng Ninh,"241 Trần Đăng Ninh, Phường Dịch Vọng, Quận Cầu Giấy, Hà Nội, VIỆT NAM",105.790875,21.039911
6573947514783036540,2263511638099213162,null,Công Ty CP Những Hạt Cà Phê Nói Chuyện,"29 ngõ 93 phố Vũ Hữu  Khuất Duy Tiến, Phường Thanh Xuân Bắc, Quận Thanh Xuân, Hà Nội, VIỆT NAM",TWTTER BEANS COFFEE TLN1,"Tầng 1, tòa nhà Thăng Long Number One số 1 đại lộ Thăng Long, Phường Dịch Vọng, Quận Cầu Giấy, Hà Nội, VIỆT NAM",105.7917352,21.0034828
6573947514783036540,5713194819904504852,null,Công Ty CP Những Hạt Cà Phê Nói Chuyện,"29 ngõ 93 phố Vũ Hữu  Khuất Duy Tiến, Phường Thanh Xuân Bắc, Quận Thanh Xuân, Hà Nội, VIỆT NAM",TWTTER BEANS COFFEE HOME CITY,"Tầng 1, V4, Tòa nhà Home City, 177 Trung Kính, Cầu Giấy, Hà Nội",105.7921704,21.0159646
1331731186241134178,5983265394667330791,other offline payment services,"CÔNG TY TNHH BÁN LẺ SAKUKO VIỆT NAM ","Tầng 4 tòa nhà Trung Yên Plaza Lô đất o17, khu đô thị Trung Yên, , Phường Trung Hoà, Quận Cầu Giấy, Hà Nội, VIỆT NAM",Sakuko Trần Đăng Ninh,"A3 Làng Quốc Tế Thăng Long, Phường Dịch Vọng, Quận Cầu Giấy, Hà Nội, VIỆT NAM",105.7931986,21.0391609
3891264094863370703,6239148440860718193,fnb,CỘT ĐIỆN QUÁN,"71 Đặng Văn Ngữ, Phường Trung Tự, Quận Đống Đa, Hà Nội, VIỆT NAM",CỘT ĐIỆN QUÁN 2,"Số 105 Tập thể C3 Nghĩa Tân, Phường Nghĩa Tân, Quận Cầu Giấy, Hà Nội, VIỆT NAM",105.7934126,21.0423697
3704863353937667980,290465394263249010,fnb,Công ty Cổ Phần Thương Mại Và Dịch Vụ SBO Việt Nam,"11 Nhà H9, Tập thể trường Đại học Sư Phạm Hà Nội, Phường Dịch Vọng, Quận Cầu Giấy, Hà Nội, VIỆT NAM",Yakimono Vincom Trần Duy Hưng,"L4-04B Vincom Center Trần Duy Hưng, Trung Hòa, Cầu Giấy, Hà Nội",105.7938924,21.0051677
3704863353937667980,7822298856933676235,fnb,Công ty Cổ Phần Thương Mại Và Dịch Vụ SBO Việt Nam,"11 Nhà H9, Tập thể trường Đại học Sư Phạm Hà Nội, Phường Dịch Vọng, Quận Cầu Giấy, Hà Nội, VIỆT NAM",Le Monde Steak - VINCOM TRẦN DUY HƯNG,"L4-04A Vincom Center Trần Duy Hưng,Trung Hòa,Cầu Giấy,Hà Nội",105.7938924,21.0051677
6778625465845016942,2677654020637664824,food,Công Ty Cổ Phần Alfresco's Á Châu,"23L Hai Bà Trưng, Phường Đồng Xuân, Quận Hoàn Kiếm, Hà Nội, VIỆT NAM",Al Fresco's Trần Duy Hưng,"Lô L5-06 TTTM Vincom Trần Duy Hưng , 119 Trần Duy Hưng, Trung Hoà, Đống Đa, Hà Nội",105.794233,21.00511
6778625465845016942,2797760526828197512,food,Công Ty Cổ Phần Alfresco's Á Châu,"23L Hai Bà Trưng, Phường Đồng Xuân, Quận Hoàn Kiếm, Hà Nội, VIỆT NAM",Pepperoni's Trần Đăng Ninh,"37 Trần Đăng Ninh, Phường Dịch Vọng, Quận Cầu Giấy, Hà Nội, VIỆT NAM",105.794391,21.036824
1324711243256079431,2220049295033766075,shopping,CÔNG TY TNHH ROUTINE VIỆT NAM,"68 Nguyễn Huệ, Phường Bến Nghé, Quận 1, TP Hồ Chí Minh",Routine Trần Duy Hưng,"L2-13A Vincom Star City Trần Duy Hưng, Q. Cầu Giấy, HN",105.7948463,21.0061795
8532453824534521631,498105049231273124,fnb,"Công Ty Trách Nhiệm Hữu Hạn SAVOR Việt Nam ","Số 108 Nguyễn Chí Thanh, Phường Láng Thượng, Quận Đống Đa, Hà Nội, VIỆT NAM",Savor Nguyễn Chánh,"Số 22,Nguyễn Chánh,Trung Hòa,Cầu Giấy,Hà Nội",105.7950634,21.0087856
7602277713859172296,5984612769095498982,beverage,CÔNG TY CỔ PHẦN KEM AN MINH,"77 Trần Nhân Tông, Phường 9, Quận 5, Thành Phố Hồ Chí Minh, VIỆT NAM","Swensen's Vincom Center ","Tầng 5, TTTM Vincom Center 119 Trần Duy Hưng, Quận Đống Đa, Hà Nội, VIỆT NAM",105.7952452,21.006658
1529371805079198010,5775721790336121233,fnb,TORANO,"1165 Giải Phóng, Phường Thịnh Liệt, Quận Hoàng Mai, Hà Nội, VIỆT NAM",Torano 198 Trần Duy Hưng,"198 Trần Duy Hưng, Phường Trung Hoà, Quận Cầu Giấy, Hà Nội, VIỆT NAM",105.795517,21.007837
1529371805079198010,4741876803398871271,fnb,TORANO,"1165 Giải Phóng, Phường Thịnh Liệt, Quận Hoàng Mai, Hà Nội, VIỆT NAM",Torano 330 Nguyễn Trãi,"330 Nguyễn Trãi, PHƯỜNG TRUNG VĂN, Quận Nam Từ Liêm, Hà Nội, VIỆT NAM",105.7957238,20.9863264
1331731186241134178,3207118793767876135,other offline payment services,"CÔNG TY TNHH BÁN LẺ SAKUKO VIỆT NAM ","Tầng 4 tòa nhà Trung Yên Plaza Lô đất o17, khu đô thị Trung Yên, , Phường Trung Hoà, Quận Cầu Giấy, Hà Nội, VIỆT NAM",Sakuko Trần Duy Hưng,"190 Trần Duy Hưng, Phường Trung Hoà, Quận Cầu Giấy, Hà Nội, VIỆT NAM",105.7973403,21.0091589
6573947514783036540,257546704825556390,null,Công Ty CP Những Hạt Cà Phê Nói Chuyện,"29 ngõ 93 phố Vũ Hữu  Khuất Duy Tiến, Phường Thanh Xuân Bắc, Quận Thanh Xuân, Hà Nội, VIỆT NAM",TWTTER BEANS COFFEE LICO,"Tầng 1, tòa Licogi 13 số 164 Khuất Duy Tiến, Phường Nhân Chính, Quận Thanh Xuân, Hà Nội, VIỆT NAM",105.7980471,20.9988824
5051997657856298904,5725940404781346568,supermarket,Công Ty TNHH Wang Wang Việt Nam,"Số 29 Bùi Huy Bích,Phường Hoàng Liệt,Quận Hoàng Mai,Thành Phố Hà Nội,Việt Nam",Công Ty TNHH Wang Wang Việt Nam,"Nhà B14 KĐT Pandora Số 53,Triều Khúc,Tân Triều,Thanh Trì,Hà Nội",105.7984049,20.9860572
4501300687807117702,8183605412983319752,beverage,CÔNG TY TNHH MỸ THỰC HƯNG THỊNH,"Số 128 Tân Mai, Phường Tân Mai, Quận Hoàng Mai, Hà Nội",Feeling Tea 48 Lương Thế Vinh,"48 Lương Thế Vinh, Phường Thanh Xuân Bắc, Quận Thanh Xuân, Hà Nội, VIỆT NAM",105.798673,20.989249
1331731186241134178,8112861212384883781,other offline payment services,"CÔNG TY TNHH BÁN LẺ SAKUKO VIỆT NAM ","Tầng 4 tòa nhà Trung Yên Plaza Lô đất o17, khu đô thị Trung Yên, , Phường Trung Hoà, Quận Cầu Giấy, Hà Nội, VIỆT NAM",Sakuko Mandarin,"C2 Nguyễn Thị Thập, khu dân cư Mandarin, Phường Dịch Vọng, Quận Cầu Giấy, Hà Nội, VIỆT NAM",105.7987278,21.0048114
5996685943079716381,5012562935269269895,fnb,DADDY PARIS,"223 Tôn Đức Thắng, Phường Hàng Bột, Quận Đống Đa, Hà Nội, VIỆT NAM",daddyparis142,"142 Trung Hòa, Phường Yên Hoà, Quận Cầu Giấy, Hà Nội, VIỆT NAM",105.7991381,21.0172066
1324711243256079431,7717523797675148146,shopping,CÔNG TY TNHH ROUTINE VIỆT NAM,"68 Nguyễn Huệ, Phường Bến Nghé, Quận 1, TP Hồ Chí Minh",Routine Cầu Giấy,"133 Đường Cầu Giấy, Quan Hoa, Cầu Giấy, Hà Nội, Việt Nam",105.799368,21.031917
3891264094863370703,8234279052271348168,fnb,CỘT ĐIỆN QUÁN,"71 Đặng Văn Ngữ, Phường Trung Tự, Quận Đống Đa, Hà Nội, VIỆT NAM",CỘT ĐIỆN QUÁN 3,"Số 8 ngõ 22 Trung Kính, Phường Trung Hoà, Quận Cầu Giấy, Hà Nội, VIỆT NAM",105.799705,21.0139718
8975182605351401947,4927577315441554645,fnb,Bánh Mỳ Ngon,"122/1194 Đường Láng, Phường Láng Thượng, Quận Đống Đa, Hà Nội, VIỆT NAM",Bánh Mỳ Ngon,"122/1194 Đường Láng, Phường Láng Thượng, Quận Đống Đa, Hà Nội, VIỆT NAM",105.8000368,21.0276691
2883473754778890331,3852889787820240647,fnb,YOUONE HOTDOG,"Số 51 Ô Chợ Dừa, Phường Ô Chợ Dừa, Quận Đống Đa, Hà Nội, VIỆT NAM",You One Hot Dog,"26H14 Ngõ 31 Phan Vân Trường, Phường Dịch Vọng, Quận Cầu Giấy, Hà Nội, VIỆT NAM",105.8004926,21.0308253
3704863353937667980,7660105611076149594,fnb,Công ty Cổ Phần Thương Mại Và Dịch Vụ SBO Việt Nam,"11 Nhà H9, Tập thể trường Đại học Sư Phạm Hà Nội, Phường Dịch Vọng, Quận Cầu Giấy, Hà Nội, VIỆT NAM",Le Monde Steak,"84 Trung Hòa, Phường Trung Hoà, Quận Cầu Giấy, Hà Nội, VIỆT NAM",105.8009072,21.015628
2693534275260314098,1393039426694452065,fnb,TIỆM BÁNH IT,"91 Chùa Láng, Phường Láng Thượng, Quận Đống Đa, Hà Nội, VIỆT NAM",tiembanhit115,"115 Nguyễn Khánh Toàn, Phường Quan Hoa, Quận Cầu Giấy, Hà Nội, VIỆT NAM",105.8009837,21.037777
482004761482411756,7804019032468541486,null,CÔNG TY TNHH NANUM VIỆT NAM,"Tầng 29, tòa nhà Handico Phạm Hùng, PHƯỜNG MỄ TRÌ, Quận Nam Từ Liêm, Hà Nội, VIỆT NAM",TN Vincom Trần Duy Hưng,"L1-K9, Vincom Center Trần Duy Hưng, Trần Duy Hưng, Quận Cầu Giấy",105.8011132,21.0114953
822043397492434507,4145031706659738927,shopping,Công ty TNHH Dalat Hasfarm,"Số 450 Nguyên Tử Lực, Phường 8, Thành phố Đà Lạt, Lâm Đồng",Dalat Hasfarm HN Trung Hòa,"19 Trung Hòa, Phường Trung Hoà, Quận Cầu Giấy, Hà Nội, VIỆT NAM",105.8013715,21.0148074
8096805314010429417,5583366295334804890,food,CÔNG TY TNHH PARIS BAGUETTE HÀ NỘI,"Tầng 9, Tòa nhà văn phòng AC  Lô A1A cụm TTCN&CNN, Phường Dịch Vọng Hậu, Quận Cầu Giấy, Hà Nội, VIỆT NAM",Paris Baguette Trung Hòa,"Tầng 1, Tòa 17T5, Khu đô thị Trung Hòa - Nhân Chính Hoàng Đạo Thúy, Phường Nhân Chính, Quận Thanh Xuân, Hà Nội, VIỆT NAM",105.8015313,21.0089099
6573947514783036540,8815297092025405354,null,Công Ty CP Những Hạt Cà Phê Nói Chuyện,"29 ngõ 93 phố Vũ Hữu  Khuất Duy Tiến, Phường Thanh Xuân Bắc, Quận Thanh Xuân, Hà Nội, VIỆT NAM",TWTTER BEANS COFFEE THNC,"Tầng 1, tòa 17T5 Hoàng Đạo Thúy, Phường Nhân Chính, Quận Thanh Xuân, Hà Nội, VIỆT NAM",105.8015313,21.0089099
8096805314010429417,164696837409731132,food,CÔNG TY TNHH PARIS BAGUETTE HÀ NỘI,"Tầng 9, Tòa nhà văn phòng AC  Lô A1A cụm TTCN&CNN, Phường Dịch Vọng Hậu, Quận Cầu Giấy, Hà Nội, VIỆT NAM",Paris Baguette The Legend,"Tầng 1, Tòa The Legend, 109 Nguyễn Tuân, Thanh Xuân, Hà Nội",105.8020216,20.9998576
4719769865534913696,6172233194279638516,food,Công Ty TNHH Đức Nhân,"23L Hai Bà Trưng, Phường Đồng Xuân, Quận Hoàn Kiếm, Hà Nội, VIỆT NAM",Pepperonis Trần Phú,"14 Trần Phú, Phường Mộ Lao, Quận Hà Đông, Hà Nội, VIỆT NAM",105.802261,21.009283
2243844528580542031,3833487763575454178,fnb,HT Mart,"107 Láng Hạ, Phường Láng Hạ, Quận Đống Đa, Hà Nội, VIỆT NAM",HT MART,"16 Trung Hòa, Trung Hoà, Cầu Giấy, Hà Nội, Việt Nam",105.8023195,21.0140742
6778625465845016942,1368098778487877042,food,Công Ty Cổ Phần Alfresco's Á Châu,"23L Hai Bà Trưng, Phường Đồng Xuân, Quận Hoàn Kiếm, Hà Nội, VIỆT NAM",Al Fresco's Hoàng Ngân,"240 Hoàng Ngân, Phường Trung Hòa, Quận Cầu Giấy, Hà Nội, VIỆT NAM",105.802553,21.009556
5048025997327319126,6944452555877994210,fnb,Bún Đậu Mẹt,"102 chùa láng, Phường Láng Thượng, Quận Đống Đa, Hà Nội, VIỆT NAM",Bún Đậu Mẹt - Lòng chần cháo,"102 chùa láng, Phường Láng Thượng, Quận Đống Đa, Hà Nội, VIỆT NAM",105.802834,21.023312
3232333568492323330,6837397147393907004,beverage,CN HÀ NỘI – Công ty TNHH Gongcha Việt Nam,"Số 63 Chùa Bộc, Phường Trung Liệt, Quận Đống Đa, Hà Nội",Gong Cha Hoàng Đạo Thúy,"Tòa nhà 34T phố Hoàng Đạo Thúy,, Phường Trung Hoà, Quận Cầu Giấy, Hà Nội, VIỆT NAM",105.8029221,21.0083109
7272637017843485142,2274316235349583123,fnb,Công ty Cổ Phần V-Food Việt Nam,"Số 20, Ngõ 145 Nguyễn Văn Cừ, Phường Ngọc Lâm, Quận Long Biên, Hà Nội, VIỆT NAM",Sarimi Nguyễn Khánh Toàn,"6A Nguyễn Khánh Toàn, Cầu Giấy, Hà Nội",105.8043054,21.0352867
417023939004436036,5266261945134243263,fnb,Đức Trang Bakery,"Tầng 1 Chung cư C5 Khu đô thị Mỹ Đình 1 Nguyễn Cơ Thạch, PHƯỜNG CẦU DIỄN, Quận Nam Từ Liêm, Hà Nội, VIỆT NAM",Đức Trang Bakery,"Số 61 Pháo Đài Láng, Phường Láng Thượng, Quận Đống Đa, Hà Nội, VIỆT NAM",105.804318,21.017329
4942158102627391859,2239170067540723832,shopping,Công ty Cổ phần thế giới Phụ nữ,"25 Tôn Đản, phường 13, Quận 4, Hồ Chí Minh, Việt Nam",iBasic - CH Kim Mã,"68 Kim Mã, Ba Đình, Hà Nội, Việt Nam",105.8045972,21.0288415
4577125193696403924,2704654868368212154,fnb,URBAN STATION COFFEE,"100 Chùa Láng, Phường Láng Thượng, Quận Đống Đa, Hà Nội, VIỆT NAM",URBAN STATION COFFEE 1,"100 Chùa Láng, Phường Láng Thượng, Quận Đống Đa, Hà Nội, VIỆT NAM",105.8049548,21.0236783
2887390537207147317,1985999908573994558,fnb,Bếp Của Mẹ,"Kiot 4 NO1 Ngõ 84 Chùa Láng, Phường Láng Thượng, Quận Đống Đa, Hà Nội, VIỆT NAM",Bếp Của Mẹ,"Kiot 4 NO1 Ngõ 84 Chùa Láng, Phường Láng Hạ, Quận Đống Đa, Hà Nội, VIỆT NAM",105.8053562,21.0246963
7810845149940257154,7987785069359062241,fnb,THỊT XIÊN NƯỚNG,"Số 93 Chùa Láng, Phường Láng Hạ, Quận Đống Đa, Hà Nội, VIỆT NAM",THỊT XIÊN NƯỚNG,"93 Chùa Láng, Phường Láng Thượng, Quận Đống Đa, Hà Nội, VIỆT NAM",105.805402,21.0236759
2444871135670595807,663452718169265714,other offline payment services,CÔNG TY CỔ PHẦN THƯƠNG MẠI GLOBAL FASHION,"96 Cao Thắng, Phường 4, Quận 3, Thành Phố Hồ Chí Minh, VIỆT NAM",VAS - Trần Duy Hưng,"114 Trần Duy Hưng, Trung Hoà, Cầu Giấy, Hà Nội, Việt Nam",105.8056092,21.0161636
8532453824534521631,6119052933866315100,fnb,"Công Ty Trách Nhiệm Hữu Hạn SAVOR Việt Nam ","Số 108 Nguyễn Chí Thanh, Phường Láng Thượng, Quận Đống Đa, Hà Nội, VIỆT NAM",SAVOR NCT,"108 Nguyễn Chí Thanh, Phường Láng Thượng, Quận Đống Đa, Hà Nội, VIỆT NAM",105.8056807,21.0163398
4627806457648007688,6314189829115489867,fnb,VUA TÀO PHỚ,"50 Thái Hà, Phường Trung Liệt, Quận Đống Đa, Hà Nội, VIỆT NAM",VUA TÀO PHỚ,"110 Đào Tấn, Phường Phúc Xá, Quận Ba Đình, Hà Nội, VIỆT NAM",105.805733,21.0338416
7081390214729399753,5297038065919394577,fnb,Lẩu Song Việt,"116C E4 Trung Liệt, Phường Trung Liệt, Quận Đống Đa, Hà Nội, VIỆT NAM",Lẩu Song Việt,"47 Nguyễn Ngọc Vũ, Phường Trung Hoà, Quận Cầu Giấy, Hà Nội, VIỆT NAM",105.805919,21.0137472
8405759108835333857,11997119793184793,food,Công Ty TNHH Bán Lẻ Sakuko Việt Nam,"Tầng 4, Tòa nhà Trung Yên Plaza Lô Đất O17, Khu đô thị Trung Yên, Phường Trung Hòa, Quận Cầu Giấy, Hà Nội, VIỆT NAM",Beard Papa's Trần Duy Hưng,"90 Trần Duy Hưng, Phường Dịch Vọng, Quận Cầu Giấy, Hà Nội, VIỆT NAM",105.8059265,21.0167191
5813181484015283222,4578788207277615775,fnb,Koi Cafe Spa 646,"646 Láng, Phường Láng Hạ, Quận Đống Đa, Hà Nội, VIỆT NAM",KOI Coffee,"646 Đường Láng, Phường Láng Hạ, Quận Đống Đa, Hà Nội, VIỆT NAM",105.8059771,21.0147667
5272997585295521260,8597112401978945927,beverage,"CÔNG TY TNHH THƯƠNG MẠI QUỐC TẾ  VƯỢNG HÀ ","43 Phó Đức Chính, Phường Trúc Bạch, Quận Ba Đình, Hà Nội, VIỆT NAM","Sharetea Nguyễn Chí Thanh	","78  Nguyễn Chí Thanh, Phường Phương Liên, Quận Đống Đa, Hà Nội, VIỆT NAM",105.806106," 21.016930"
7114548482837413945,8533175187949919023,fnb,Bilio Coffee,"1/37 Đê La Thành, Phường Ngọc Khánh, Quận Ba Đình, Hà Nội, VIỆT NAM",BILIO COFFEE KIM MÃ,"75/649 Kim Mã, Ba Đình, Hà Nội, Việt Nam",105.8061892,21.0285942
3497215282199771681,2616029047975092659,fnb,Trà Sữa Hefkcha,"Số 71 Chùa Láng, Phường Láng Thượng, Quận Đống Đa, Hà Nội, VIỆT NAM",Trà Sữa Hefkcha,"71 Chùa Láng, Phường Láng Thượng, Quận Đống Đa, Hà Nội, VIỆT NAM",105.8062121,21.0232716
4577125193696403924,8775534012658450966,fnb,URBAN STATION COFFEE,"100 Chùa Láng, Phường Láng Thượng, Quận Đống Đa, Hà Nội, VIỆT NAM",Sailing Coffee,"23 Ngõ 82 Chùa Láng, Láng Thượng, Đống Đa, Hà Nội, Việt Nam",105.8062718,21.0242899
5996685943079716381,8540762280401888711,fnb,DADDY PARIS,"223 Tôn Đức Thắng, Phường Hàng Bột, Quận Đống Đa, Hà Nội, VIỆT NAM",daddyparis59,"59 Bưởi, Phường Vĩnh Phúc, Quận Ba Đình, Hà Nội, VIỆT NAM",105.8064223,21.0464116
576006017123449210,8041055092177299757,fnb,Bánh Mỳ Ánh Tuyết,"Số 89 Chùa Láng, Phường Láng Thượng, Quận Đống Đa, Hà Nội, VIỆT NAM",Bánh Mỳ Ánh Tuyết,"Số 89 Chùa Láng, Phường Láng Thượng, Quận Đống Đa, Hà Nội, VIỆT NAM",105.8065447,21.0233815
4610209840050917926,1715362287618231707,fnb,ĐÔI MÓNG GIÒ,"Số 77 - 79 Chùa Láng, Phường Láng Hạ, Quận Đống Đa, Hà Nội, VIỆT NAM",ĐÔI MÓNG GIÒ,"77-79  Chùa Láng, Phường Láng Thượng, Quận Đống Đa, Hà Nội, VIỆT NAM",105.8069998,21.0231196
1746255898961407518,7974714815291994303,fnb,MIZUSAWA,"68 Chùa Láng, Phường Láng Thượng, Quận Đống Đa, Hà Nội, VIỆT NAM",Mizusawa 1,"68 Chùa Láng, Phường Láng Thượng, Quận Đống Đa, Hà Nội, VIỆT NAM",105.8071979,21.0233782
70962159902343026,8189090071254125786,fnb,CHÈ NGON BÉ CHUN,"68 Nguyễn Chí Thanh, Phường Láng Thượng, Quận Đống Đa, Hà Nội, VIỆT NAM",CHÈ NGON BÉ CHUN 1,"68 Nguyễn Chí Thanh, Phường Láng Thượng, Quận Đống Đa, Hà Nội, VIỆT NAM",105.8074382,21.0193669
1258129089952486938,2306229402365819138,fnb,Newborns Vietnam,"18/879 La Thành, Phường Láng Thượng, Quận Đống Đa, Hà Nội, VIỆT NAM",Newborns MUC 2019,Chân thành cảm ơn bạn đã cùng chúng tôi cứu sống 10.000 trẻ sơ sinh mỗi năm!,105.8074996,21.0248769
3217347275587941674,6548674047258545575,fnb,Trà chanh Cafe Minh Thúy,"9 Láng, Phường Láng Hạ, Quận Đống Đa, Hà Nội, VIỆT NAM",Trà chanh Cafe Minh Thúy,"9 Láng, Phường Láng Hạ, Quận Đống Đa, Hà Nội, VIỆT NAM",105.80757,21.023281
8096805314010429417,6595584773180584106,food,CÔNG TY TNHH PARIS BAGUETTE HÀ NỘI,"Tầng 9, Tòa nhà văn phòng AC  Lô A1A cụm TTCN&CNN, Phường Dịch Vọng Hậu, Quận Cầu Giấy, Hà Nội, VIỆT NAM","Paris Baguette Golden Palm  ","Tầng 1, Tòa Golden Palm, số 21 Lê Văn Lương, Q. Thanh Xuân, Hà Nội",105.80763,21.0069923
1091190812284273157,6323339645647389900,fnb,CAFE BABA,"33 Pháo Đài Láng, Phường Láng Thượng, Quận Đống Đa, Hà Nội, VIỆT NAM",CAFE BABA,"33 Pháo Đài Láng, Phường Láng Thượng, Quận Đống Đa, Hà Nội, VIỆT NAM",105.807777,21.019921
4723008963296772225,5086177688613037699,fnb,Cửa Hàng Phớ Đê,"14 Chùa Láng, Phường Láng Thượng, Quận Đống Đa, Hà Nội, VIỆT NAM",Cửa Hàng Phớ Phớ Đê,"14 Chùa Láng, Phường Láng Thượng, Quận Đống Đa, Hà Nội, VIỆT NAM",105.8081768,21.0231588
8604760745999833635,2331892616485878096,fnb,Chè Và Trà Sữa Đài Loan Blackball,"62 Nguyễn Chí Thanh, Phường Láng Thượng, Quận Đống Đa, Hà Nội, VIỆT NAM",Chè Và Trà Sữa Đài Loan Blackball,"62 Nguyễn Chí Thanh, Phường Láng Thượng, Quận Đống Đa, Hà Nội, VIỆT NAM",105.8085052,21.0212431
3541717506902122133,8964113716208843937,fnb,CREPES K,"2/91 Chùa Láng, Phường Láng Thượng, Quận Đống Đa, Hà Nội, VIỆT NAM",Crepes K,"2/91 Chùa Láng, Phường Láng Thượng, Quận Đống Đa, Hà Nội, VIỆT NAM",105.8085451,21.022968
7640837096380101159,1342106547751398216,other offline payment services,CÔNG TY TNHH DỊCH VỤ THƯƠNG MẠI GOOD GOODS,"37 đường 16 khu phố 4, Phường Tân Phú, Quận 7",Daiso Nguyễn Chí Thanh,"Daiso Ha Noi, Shop L4.03-03A, Vincom Nguyễn Chí Thanh, Quận Đống Đa, Hà Nội.",105.808868,21.023446
1296318385548951681,2894233243275231068,fnb,CAFE LINH,"20/91 Nguyễn Chí Thanh, Phường Láng Hạ, Quận Đống Đa, Hà Nội, VIỆT NAM",CAFE LINH,"20/91 Nguyễn Chí Thanh, Phường Láng Hạ, Quận Đống Đa, Hà Nội, VIỆT NAM",105.8094866,21.020667
56770201154831864,6515027990969612491,fnb,Hộ kinh doanh Trương Đức Tùng,"Số 107 Nam Đồng, Phường Nam Đồng, Quận Đống Đa, Hà Nội, VIỆT NAM",Shushi Garden,"Số 46 Vũ Trọng Phụng, Phường Thanh Xuân Trung, Quận Thanh Xuân, Hà Nội, VIỆT NAM",105.809647,20.997693
4719769865534913696,1558636922265945538,food,Công Ty TNHH Đức Nhân,"23L Hai Bà Trưng, Phường Đồng Xuân, Quận Hoàn Kiếm, Hà Nội, VIỆT NAM",Pepperoni's Nguyễn Chí Thanh,"114B2 Nguyễn Chí Thanh, Phường Ngọc Khánh, Quận Ba Đình, Hà Nội, VIỆT NAM",105.809674,21.023150
1127558698440978406,2555208160805610288,fnb,Fuji Food,"Số 49 Ngõ 49 Huỳnh Thúc Kháng, Phường Láng Hạ, Quận Đống Đa, Hà Nội, VIỆT NAM",Fuji Food,"Số 49 Ngõ 49 Huỳnh Thúc Kháng, Phường Láng Hạ, Quận Đống Đa, Hà Nội, VIỆT NAM",105.8098681,21.0171385
4541714328833055088,2127487841813890371,fnb,QUÁN MÓN HUẾ,"35 Nguyễn Chí Thanh, Phường Láng Hạ, Quận Đống Đa, Hà Nội, VIỆT NAM",QUÁN MÓN HUẾ,"35 Nguyễn Chí Thanh, Phường Ngọc Khánh, Quận Ba Đình, Hà Nội, VIỆT NAM",105.810168,21.021259
6190291769435275431,7046395183284618631,fnb,"Kim Chí Quán ","27 ngõ 49 Huỳnh Thúc Kháng, Phường Láng Hạ, Quận Đống Đa, Hà Nội, VIỆT NAM",Kim Chí Quán Nguyên Hồng,"27 ngõ 49 Huỳnh Thúc Kháng, Phường Láng Hạ, Quận Đống Đa, Hà Nội, VIỆT NAM",105.810283,21.0178793
2165615276945191899,3233241667921391367,fnb,Nhà Thuốc Linh An,"45 Vũ Ngọc Phan, Phường Láng Hạ, Quận Đống Đa, Hà Nội, VIỆT NAM",Nhà Thuốc Linh An1,"45 Vũ Ngọc Phan, Phường Láng Hạ, Quận Đống Đa, Hà Nội, VIỆT NAM",105.8108053,21.014198
8894244506110084880,880975218189057008,fnb,Pizza Chảo Đồng Phát Park View Tower,"Tầng 2 Tòa Nhà Đồng Phát Park View Tower, Phường Vĩnh Hưng, Quận Hoàng Mai, Hà Nội, VIỆT NAM",Pizza Chảo 414 Đội Cấn,"414 Đội Cấn, Phường Vĩnh Phúc, Quận Ba Đình, Hà Nội, VIỆT NAM",105.811096,21.038111
6778625465845016942,8255610362200108661,food,Công Ty Cổ Phần Alfresco's Á Châu,"23L Hai Bà Trưng, Phường Đồng Xuân, Quận Hoàn Kiếm, Hà Nội, VIỆT NAM",Al Fresco's Vincom Nguyễn Chí Thanh,"54 Nguyễn  Chí  Thanh, Phường Láng Hạ, Quận Đống Đa, Hà Nội, VIỆT NAM",105.811310,21.023690
2930026672445728600,3553002705083040876,fnb,Công ty TNHH Truyền Thông Xuân Vũ,"Số 60, ngõ 22 phố Phan Đình Giót, P.Phương Liệt, Q.Thanh Xuân, Hà Nội",Xuân Vũ Audio Láng Hạ,"165 Láng Hạ, Phường Láng Hạ, Quận Đống Đa, Hà Nội, VIỆT NAM",105.811462,21.011153
6861326911902337402,2660952706236111198,fnb,Sakura Sou Japan,"4 Vũ Ngọc Phan, Phường Láng Hạ, Quận Đống Đa, Hà Nội, VIỆT NAM",Sakura Sou Japan1,"4 Vũ Ngọc Phan, Phường Láng Hạ, Quận Đống Đa, Hà Nội, VIỆT NAM",105.8114874,21.0140821
8622242012958029898,8376397616339311959,fnb,Royal Tea,"215 Tôn Đức Thắng, Phường Hàng Bột, Quận Đống Đa, Hà Nội, VIỆT NAM",Royal Tea,"96 Láng Hạ, Phường Láng Hạ, Quận Đống Đa, Hà Nội, VIỆT NAM",105.811537,21.011432
6657163517614162406,8561310351596640559,fnb,Chân Gà Nướng,"số 3 G4-12 Nguyên Hồng, Phường Láng Hạ, Quận Đống Đa, Hà Nội, VIỆT NAM",Chân Gà nướng,"Số 3 G4-12  Nguyên hồng, Phường Láng Hạ, Quận Đống Đa, Hà Nội, VIỆT NAM",105.811575,21.017974
3651275696711946632,3629003170555566735,fnb,Hộ Kinh Doanh Cơm Bún Bò Huế Nguyễn Thị Hạnh,"Phòng 04 Tầng 1 Nhà G 23 Thành Công Ba Đình , Hà Nội, VIỆT NAM",Nhà Hàng Cơm Bún Bò Huế,"G23 Huỳnh Thúc Kháng, Phường Láng Hạ, Quận Đống Đa, Hà Nội, VIỆT NAM",105.811646,21.018172
1492534056723042530,6142753838635866381,fnb,Lẩu cá kèo và bánh tráng Trảng Bàng,"Phòng 408 nhà G6A Nguyên Hồng, Phường Láng Hạ, Quận Đống Đa, Hà Nội, VIỆT NAM",Lẩu cá kèo và bánh tráng Trảng Bàng,"Phòng 408 nhà G6A Nguyên Hồng, Phường Láng Hạ, Quận Đống Đa, Hà Nội, VIỆT NAM",105.8118719,21.019364
1594271052652957220,7692680777571749969,fnb,Royal Tea 379 Trường Chinh,"379 Trường Chinh, Phường Trung Liệt, Quận Đống Đa, Hà Nội, VIỆT NAM",ROYAL TEA,"30 Phan Kế Bính, Phường Cống Vị, Quận Ba Đình, Hà Nội, VIỆT NAM",105.8118903,21.0345638
4833825125239355898,2093013176596998045,fnb,Phở KCC Nguyên Hồng,"109D8 Nguyên Hồng, Phường Thành Công, Quận Ba Đình, Hà Nội, VIỆT NAM",Phở KCC Nguyên Hồng,"109D8 Nguyên Hồng, Phường Thành Công, Quận Ba Đình, Hà Nội, VIỆT NAM",105.811901,21.0226347
1077561302727319391,2027565240785871134,fnb,Hộ kinh doanh dịch vụ ăn bích đào,"số 1 ngõ 111 đường Láng Hạ, Phường Láng Hạ, Quận Đống Đa, Hà Nội, VIỆT NAM",Cháo Ếch Singapore,"111 Láng Hạ, Phường Láng Hạ, Quận Đống Đa, Hà Nội, VIỆT NAM",105.812401,21.011757
822043397492434507,2773199672542823060,shopping,Công ty TNHH Dalat Hasfarm,"Số 450 Nguyên Tử Lực, Phường 8, Thành phố Đà Lạt, Lâm Đồng",Dalat Hasfarm HN Nguyễn Chí Thanh,"29 Nguyễn Chí Thanh, Phường Ngọc Khánh, Quận Ba Đình, Hà Nội, VIỆT NAM",105.8127656,21.0287811
9107214669541149753,5253556406731948840,food,CÔNG TY CỔ PHẦN FC & KMEAT VIỆT NAM,"230 Phố Xá Đàn, Phường Phương Liên, Quận Đống Đa, Hà Nội, VIỆT NAM",Food House Nguyễn Trãi,"204 Nguyễn Trãi, Phường Thượng Đình, Quận Thanh Xuân, Hà Nội, VIỆT NAM",105.8129368,20.9984649
1947593774170713675,1779232979357598305,fnb,Bún Bò Huế O-Nga,"Số 104 C10 Thàng Công, Phường Thành Công, Quận Ba Đình, Hà Nội, VIỆT NAM",Bún Bò Huế O-Nga,"104 C10 Thành Công, Phường Thành Công, Quận Ba Đình, Hà Nội, VIỆT NAM",105.813034,21.0217448
8532453824534521631,7818763022361295029,fnb,"Công Ty Trách Nhiệm Hữu Hạn SAVOR Việt Nam ","Số 108 Nguyễn Chí Thanh, Phường Láng Thượng, Quận Đống Đa, Hà Nội, VIỆT NAM",Savor Phan Kế Bính,"110 Phan Kế Bính, Cống Vị, Ba Đình, Hà Nội, Việt Nam",105.813345,21.034207
8742885012138412111,2306571428736519120,fnb,Lecastella And Leecha Huỳnh Thúc Kháng,"7 Huỳnh Thúc Kháng, Phường Láng Hạ, Quận Đống Đa, Hà Nội, VIỆT NAM",Lecastella And Leecha Huỳnh Thúc Kháng,"số 7 Huỳnh Thúc Kháng, Phường Láng Hạ, Quận Đống Đa, Hà Nội, VIỆT NAM",105.813588,21.01702
4916269759642439546,5571208686066096747,fnb,Kimmy's Chocolate Hà Nội,"29A Nguyễn Chí Thanh, Phường Ngọc Khánh, Quận Ba Đình, Hà Nội, VIỆT NAM",Kimmy's Chocolate Hà Nội,"29A Nguyễn Chí Thanh, Phường Ngọc Khánh, Quận Ba Đình, Hà Nội, VIỆT NAM",105.813616,21.028794
7697129851354317938,3701595999559205575,fnb,Nộm Gia Truyền Hoa Mai,"111A5 thành công, Phường Trung Liệt, Quận Đống Đa, Hà Nội, VIỆT NAM",Nộm Gia Truyền Hoa Mai,"111A5 Thành Công, Phường Thành Công, Quận Ba Đình, Hà Nội, VIỆT NAM",105.813635,21.020796
8096805314010429417,4744605322563493081,food,CÔNG TY TNHH PARIS BAGUETTE HÀ NỘI,"Tầng 9, Tòa nhà văn phòng AC  Lô A1A cụm TTCN&CNN, Phường Dịch Vọng Hậu, Quận Cầu Giấy, Hà Nội, VIỆT NAM",Paris Baguette Metropolis,"B1-K4, Vincom Center Metropolis, 29 Liễu Giai, Ba Đình, Hà Nội",105.8150252,21.0313214
4719769865534913696,5313901101458872320,food,Công Ty TNHH Đức Nhân,"23L Hai Bà Trưng, Phường Đồng Xuân, Quận Hoàn Kiếm, Hà Nội, VIỆT NAM",Al Fresco's Kim Mã,"Tầng L2-11 TTTM Vinhomes Metropolis , 29 Liễu Giai, Phường Ngọc Khánh, Quận Ba Đình, Hà Nội, VIỆT NAM",105.8152247,21.0320508
7602277713859172296,4139580851295961937,beverage,CÔNG TY CỔ PHẦN KEM AN MINH,"77 Trần Nhân Tông, Phường 9, Quận 5, Thành Phố Hồ Chí Minh, VIỆT NAM",Swensen's Vincom Metropolis,"Tầng 3, Vincom Metropolis 29 Liễu Giai, Phường Ngọc Hà, Quận Ba Đình, Hà Nội, VIỆT NAM",105.815418,21.032108
8602654454042294128,8061676592861637738,fnb,Delithy,"21 Ngõ Thái Hà Thái Hà, Phường Láng Hạ, Quận Đống Đa, Hà Nội, VIỆT NAM",Delithy,"21 Ngõ Thái Hà Thái Hà, Phường Láng Hạ, Quận Đống Đa, Hà Nội, VIỆT NAM",105.815453,21.015043
8214464423675061465,4061086845652319577,fnb,She Coffee,"9 Ngõ Thái Hà, Phường Láng Hạ, Quận Đống Đa, Hà Nội, VIỆT NAM",She Coffee,"9 Ngõ Thái Hà, Phường Láng Hạ, Quận Đống Đa, Hà Nội, VIỆT NAM",105.815498,21.015354
5254081703095251062,8675223875805696030,other offline payment services,"CÔNG TY CỔ PHẦN THỂ THAO BOOTH 		BOOTH SPORT (VIETNAM) JOINT STOCK COMPANY","163 Phan Đăng Lưu, Phường 1, Quận Phú Nhuận, Thành phố Hồ Chí Minh",Supersport Royal,"Tầng hầm B1, TTTM Robins tòa nhà Vincom 72A Nguyễn Trãi, Thanh Xuân, Hà Nội",105.815587,21.003307
6959023445664812314,5691686776240831559,fnb,CÔNG TY TNHH XUẤT NHẬP KHẨU THƯƠNG MẠI AN MINH,"Số 20, ngõ 145 Nguyễn Văn Cừ, Phường Ngọc Lâm, Quận Long Biên, Thành phố Hà Nội",f5fruitshop2,"95 Văn Cao, Phường Liễu Giai, Quận Ba Đình, Hà Nội, VIỆT NAM",105.8158099,21.039404
2638821849471398448,3014109898521381034,other offline payment services,CÔNG TY TNHH THƯƠNG MẠI AN SINH," 301,   khu tập thể H3 Thành Công , Phường Thành Công, Quận Ba Đình, Hà Nội, VIỆT NAM","Tầng 1, Rạp chiếu phim Quốc Gia, số  , Ba Đình, TP.Hà nội. ","87 Láng Hạ, Phường Phúc Xá, Quận Ba Đình, Hà Nội, VIỆT NAM",105.8158325,21.0167526
1551153095406971249,6627542588881041718,fnb,Nem nộm trường tâm,"105A5 tập thể Thành Công, Phường Thành Công, Quận Ba Đình, Hà Nội, VIỆT NAM",Nem nộm trường tâm 1,"105A5 tập thể  Thành Công, Phường Thành Công, Quận Ba Đình, Hà Nội, VIỆT NAM",105.8158357,21.0220682
6835189764919746072,2442775523715724880,fnb,B59 COFFEE,"370  Thái Hà, Phường Láng Hạ, Quận Đống Đa, Hà Nội, VIỆT NAM",B59 COFFEE,"59 Khương Trung, Phường Khương Đình, Quận Thanh Xuân, Hà Nội, VIỆT NAM",105.815958,20.993166
7990772444239018337,6956116996495761738,fnb,K' Street,"186 Thượng Đình, Phường Thượng Đình, Quận Thanh Xuân, Hà Nội, VIỆT NAM",K' Street,"186 Thượng Đình, Phường Thượng Đình, Quận Thanh Xuân, Hà Nội, VIỆT NAM",105.8160153,20.9976318
3893968759609682715,559749586171947387,fnb,Pháo Cafe,"188 Thái Thịnh, Phường Láng Hạ, Quận Đống Đa, Hà Nội, VIỆT NAM",Pháo Cafe,"188 Thái Thịnh, Phường Láng Hạ, Quận Đống Đa, Hà Nội, VIỆT NAM",105.8160967,21.0131835
8405759108835333857,5605707870738285128,food,Công Ty TNHH Bán Lẻ Sakuko Việt Nam,"Tầng 4, Tòa nhà Trung Yên Plaza Lô Đất O17, Khu đô thị Trung Yên, Phường Trung Hòa, Quận Cầu Giấy, Hà Nội, VIỆT NAM",Beard Papa's Royal,"72  Nguyễn Trãi, Phường Khương Đình, Quận Thanh Xuân, Hà Nội, VIỆT NAM",105.8161204,21.0003996
7466808126828574845,6122684962099554966,other offline payment services,CÔNG TY CP ROBINSON DEPARTMENT STORE (VIETNAM),"Số 72 A Nguyễn Trãi, P. Thượng Đình, Q.Thanh Xuân, TP.Hà Nội",Robinson Department Store 2,Tầng hầm B1 - R6 Royal City số 72A Nguyễn Trãi - Thanh Xuân - Hà Nội,105.816471,21.002752
7466808126828574845,4426615989798741181,other offline payment services,CÔNG TY CP ROBINSON DEPARTMENT STORE (VIETNAM),"Số 72 A Nguyễn Trãi, P. Thượng Đình, Q.Thanh Xuân, TP.Hà Nội",Robinson Department Store 6,Tầng hầm B1 - R6 Royal City số 72A Nguyễn Trãi - Thanh Xuân - Hà Nội,105.816471,21.002752
7466808126828574845,3374256079192715593,other offline payment services,CÔNG TY CP ROBINSON DEPARTMENT STORE (VIETNAM),"Số 72 A Nguyễn Trãi, P. Thượng Đình, Q.Thanh Xuân, TP.Hà Nội",Robinson Department Store  3,Tầng hầm B1 - R6 Royal City số 72A Nguyễn Trãi - Thanh Xuân - Hà Nội,105.816471,21.002752
7466808126828574845,1786343287334719996,other offline payment services,CÔNG TY CP ROBINSON DEPARTMENT STORE (VIETNAM),"Số 72 A Nguyễn Trãi, P. Thượng Đình, Q.Thanh Xuân, TP.Hà Nội",Robinson Department Store   4,Tầng hầm B1 - R6 Royal City số 72A Nguyễn Trãi - Thanh Xuân - Hà Nội,105.816471,21.002752
2836984108500781008,6239691931360727075,fnb,Công ty TNHH Phát triển thương mại Phúc Linh,54A Ngõ 143 - Phố chợ Khâm Thiên - P. Trung Phụng - Đống Đa - Hà Nội - VIỆT NAM,Hoa quả Phúc Linh,"Số 5 Ngõ 151A Thái Hà, Phường Láng Hạ, Quận Đống Đa, Hà Nội, VIỆT NAM",105.8165847,21.0146088
7147576413666439448,1251988838694001296,fnb,Nhà thuốc Việt Dũng,"Số 26 Ngõ 151A Thái Hà, Phường Láng Hạ, Quận Đống Đa, Hà Nội, VIỆT NAM",Nhà thuốc Việt Dũng,"Số 26 Ngõ 151A Thái Hà, Phường Láng Hạ, Quận Đống Đa, Hà Nội, VIỆT NAM",105.816678,21.014631
6835189764919746072,6028938650525639113,fnb,B59 COFFEE,"370  Thái Hà, Phường Láng Hạ, Quận Đống Đa, Hà Nội, VIỆT NAM",B59 COFFEE,"370 Thái Hà, Phường Trung Liệt, Quận Đống Đa, Hà Nội, VIỆT NAM",105.8168784,21.0152633
3947794641222203294,7908986229529574188,fnb,"Chân Gà Rang Muối ","334  Thái Hà, Phường Trung Liệt, Quận Đống Đa, Hà Nội, VIỆT NAM",Chân Gà Rang Muối,"334 Thái Hà, Phường Trung Liệt, Quận Đống Đa, Hà Nội, VIỆT NAM",105.8168793,21.0152627
1331731186241134178,1559716621275405019,other offline payment services,"CÔNG TY TNHH BÁN LẺ SAKUKO VIỆT NAM ","Tầng 4 tòa nhà Trung Yên Plaza Lô đất o17, khu đô thị Trung Yên, , Phường Trung Hoà, Quận Cầu Giấy, Hà Nội, VIỆT NAM",Sakuko Thái Hà,"165 Thái Hà, Phường Láng Hạ, Quận Đống Đa, Hà Nội, VIỆT NAM",105.8170876,21.0151168
2414921363060165597,6733147642716436012,fnb,Cửa Hàng Anh Hiệp,"Số 54 Ngõ Thái Thịnh 1 Thái Thịnh, Phường Thịnh Quang, Quận Đống Đa, Hà Nội, VIỆT NAM",Cửa Hàng Anh Hiệp,"số 54 ngõ thái thịnh 1 Thái Thịnh, Phường Thịnh Quang, Quận Đống Đa, Hà Nội, VIỆT NAM",105.8173276,21.010324
5561294982351160096,5689067350520316668,fnb,HAHA CHICKEN,"111D11 thái thịnh, Phường Thịnh Quang, Quận Đống Đa, Hà Nội, VIỆT NAM",HAHA CHICKEN,"111D11 Thái Thịnh, Phường Thịnh Quang, Quận Đống Đa, Hà Nội, VIỆT NAM",105.817676,21.011342
8622242012958029898,9170855459118938621,fnb,Royal Tea,"215 Tôn Đức Thắng, Phường Hàng Bột, Quận Đống Đa, Hà Nội, VIỆT NAM",Royal Tea Ngọc Khánh,"14 Ngọc Khánh, Ngọc Khánh, Ba Đình, Hà Nội, Việt Nam",105.817836,21.0256909
4719769865534913696,8938764913845081586,food,Công Ty TNHH Đức Nhân,"23L Hai Bà Trưng, Phường Đồng Xuân, Quận Hoàn Kiếm, Hà Nội, VIỆT NAM",Al Fresco's Láng Hạ,"108k1 Láng Hạ, Phường Thành Công, Quận Ba Đình, Hà Nội, VIỆT NAM",105.817847,21.021006
8736972261938279055,3759478784892998925,fnb,MASTER TEA,"24B Lò Đúc, Phường Phạm Đình Hổ, Quận Hai Bà Trưng, Hà Nội, VIỆT NAM",Master Tea,"34 Yên Lãng, Phường Thịnh Quang, Quận Đống Đa, Hà Nội, VIỆT NAM",105.8181101,21.0132724
1529371805079198010,8538019701974000191,fnb,TORANO,"1165 Giải Phóng, Phường Thịnh Liệt, Quận Hoàng Mai, Hà Nội, VIỆT NAM",Torano 31 Yên Lãng,"31 Yên Lãng, Phường Trung Liệt, Quận Đống Đa, Hà Nội, VIỆT NAM",105.8182685,21.0129722
1304915546221196826,1189951701747396389,fnb,Ốc ăn vặt Thành Công,"104 A5 Tập thể Thành Công Thành Công, Phường Thành Công, Quận Ba Đình, Hà Nội, VIỆT NAM",Ốc ăn vặt Thành Công,"104 A5  Tập thể Thành Công, Phường Thành Công, Quận Ba Đình, Hà Nội, VIỆT NAM",105.81873,21.0305785
836945335609331430,5727530021239587747,fnb,Lagrupa Steak House,"148  Trung Liệt, Phường Trung Liệt, Quận Đống Đa, Hà Nội, VIỆT NAM",Lagrupa Steak House,"148 Trung Liệt, Phường Trung Liệt, Quận Đống Đa, Hà Nội, VIỆT NAM",105.8188978,21.010242
8784503040925972898,5630004619557691173,fnb,DELI COFFEE,"Số 5 ngõ 131 Thái Hà, Phường Trung Liệt, Quận Đống Đa, Hà Nội, VIỆT NAM",DELI COFFEE,"Số 5 ngõ 131 Thái Hà, Phường Trung Liệt, Quận Đống Đa, Hà Nội, VIỆT NAM",105.8195099,21.0130045
1396035296797382871,2975663460189775152,fnb,Cơm Thu,"3 ngõ 121 Thái Hà, Phường Trung Liệt, Quận Đống Đa, Hà Nội, VIỆT NAM",Cơm Thu,"3 ngõ 121 Thái Hà, Phường Trung Liệt, Quận Đống Đa, Hà Nội, VIỆT NAM",105.8197559,21.0127215
5676409292342853729,3975214871960247429,fnb,Mochiotea,"Số 6 Hoàng cầu mới , Phường Trung Liệt, Quận Đống Đa, Hà Nội, VIỆT NAM",MOCHIOTEA,"06  hoàng cầu mới, Phường Trung Liệt, Quận Đống Đa, Hà Nội, VIỆT NAM",105.8200707,21.0150706
608997457753305243,8817499780283303303,fnb,Lẩu laksa,"968 La Thành, Phường Ngọc Khánh, Quận Ba Đình, Hà Nội, VIỆT NAM",Lẩu laksa,"1 ngõ 117 Thái hà, Phường Trung Liệt, Quận Đống Đa, Hà Nội, VIỆT NAM",105.8200736,21.0123839
4706569827812853649,6872515049355411954,fnb,THỰC PHẨM SẠCH GFOOD,"124 C1 Vĩnh Hồ, Phường Thịnh Quang, Quận Đống Đa, Hà Nội, VIỆT NAM",THỰC PHẨM SẠCH GFOOD,"124 C1 Vĩnh Hồ, Phường Thịnh Quang, Quận Đống Đa, Hà Nội, VIỆT NAM",105.8202186,21.0050226
8532453824534521631,4061811477930073260,fnb,"Công Ty Trách Nhiệm Hữu Hạn SAVOR Việt Nam ","Số 108 Nguyễn Chí Thanh, Phường Láng Thượng, Quận Đống Đa, Hà Nội, VIỆT NAM",Savor Đội Cấn,"216 Đội Cấn, Phường Đội Cấn, Quận Ba Đình, Hà Nội, VIỆT NAM",105.8205349,21.0352295
1411049101518437098,8858236409434700220,fnb,Hộ Kinh Doanh Quách Thu Thảo,"77 Vĩnh Hồ, Phường Ngã Tư Sở, Quận Đống Đa, Hà Nội, VIỆT NAM",Đặc sản chè,"60 Vĩnh Hồ, Phường Ngã Tư Sở, Quận Đống Đa, Hà Nội, VIỆT NAM",105.820592,21.006795
6316121079822633965,2628657454774775533,fnb,Trà sữa Vone,"Đối diện số 32,ngõ 35 Thái Thịnh, Phường Ngã Tư Sở, Quận Đống Đa, Hà Nội, VIỆT NAM",Trà sữa Vone,"Đối diện số 32 ngõ 35 Thái Thịnh, Phường Ngã Tư Sở, Quận Đống Đa, Hà Nội, VIỆT NAM",105.8208597,21.0069852
9107214669541149753,9129536513363076022,food,CÔNG TY CỔ PHẦN FC & KMEAT VIỆT NAM,"230 Phố Xá Đàn, Phường Phương Liên, Quận Đống Đa, Hà Nội, VIỆT NAM",FOOD HOUSE THÁI HÀ," 85  Thái Hà, Phường Trung Liệt, Quận Đống Đa, Hà Nội, VIỆT NAM",105.820912,21.0122
8381598467327647093,7287205549597386183,fnb,Grand Coffee,"436 Tây Sơn, Phường Ngã Tư Sở, Quận Đống Đa, Hà Nội, VIỆT NAM",Grand Coffee,"436 Tây Sơn, Phường Ngã Tư Sở, Quận Đống Đa, Hà Nội, VIỆT NAM",105.820931,21.003529
8366660083633561080,6198733526551989405,fnb,ĐẶC SẢN LƯƠN ĐỒNG,"105 E5 Thái Thịnh, Phường Ngã Tư Sở, Quận Đống Đa, Hà Nội, VIỆT NAM",ĐẶC SẢN LƯƠN ĐỒNG,"105 E5 Thái Thịnh, Phường Ngã Tư Sở, Quận Đống Đa, Hà Nội, VIỆT NAM",105.821052,21.0075119
1238760765024775632,8856276600689924786,food,CÔNG TY CỔ PHẦN DỊCH VỤ THỰC PHẨM VÀNG,"40 HOÀNG DIỆU, Phường 10, Quận Phú Nhuận, Thành Phố Hồ Chí Minh, VIỆT NAM",Gà nướng Ò Ó O 243 Giảng Võ,"Tầng 1-3, số 243 Giảng Võ, Phường Cát Linh, Quận Đống Đa, Thành Phố Hà Nội",105.8212439,21.0245919
2679274209015806104,7461118548062836809,fnb,Cơm Tám Đại Dương,"4 ngõ 49 Vĩnh Hồ, Phường Ngã Tư Sở, Quận Đống Đa, Hà Nội, VIỆT NAM",Cơm Tám Đại Dương,"4 ngõ 49 Vĩnh Hồ, Phường Ngã Tư Sở, Quận Đống Đa, Hà Nội, VIỆT NAM",105.821374,21.005833
5194616817579721435,8728457277825356368,fnb,Chè Sầu Liên,"630A Trường Chinh, Phường Khương Thượng, Quận Đống Đa, Hà Nội, VIỆT NAM",Chè Sầu Liên,"630A Trường Chinh, Phường Khương Thượng, Quận Đống Đa, Hà Nội, VIỆT NAM",105.821552,21.003269
7114671607758890461,2823715092101790780,fnb,Gà Phê,"20 Ngõ 7 Thái Hà, Phường Trung Liệt, Quận Đống Đa, Hà Nội, VIỆT NAM",Gà Phê,"Số 20 Ngõ 7  Thái hà, Phường Trung Liệt, Quận Đống Đa, Hà Nội, VIỆT NAM",105.821833,21.009856
3557087237674630794,6077081414689026247,fnb,PHỦI CAFE,"45 Thái Thịnh, Phường Trung Liệt, Quận Đống Đa, Hà Nội, VIỆT NAM",PHỦI CAFE,"45 Thái Thịnh, Phường Trung Liệt, Quận Đống Đa, Hà Nội, VIỆT NAM",105.8218351,21.0063606
4121938566561679704,7342011178457328085,fnb,Cửa Hàng Gà 99,"3/604 Trường Chinh, Phường Khương Thượng, Quận Đống Đa, Hà Nội, VIỆT NAM",Cửa Hàng Gà 99,"3/604 Trường Chinh, Phường Khương Thượng, Quận Đống Đa, Hà Nội, VIỆT NAM",105.8219111,21.0027715
5420004629678826695,9104096037365016811,fnb,Lylagua Coffee,"440 Tây Sơn, Phường Ngã Tư Sở, Quận Đống Đa, Hà Nội, VIỆT NAM",Lylagua Coffee,"440 Tây Sơn, Phường Ngã Tư Sở, Quận Đống Đa, Hà Nội, VIỆT NAM",105.821916,21.004549
8532453824534521631,6115155052153366754,fnb,"Công Ty Trách Nhiệm Hữu Hạn SAVOR Việt Nam ","Số 108 Nguyễn Chí Thanh, Phường Láng Thượng, Quận Đống Đa, Hà Nội, VIỆT NAM",Savor 207 Giảng Võ,"207 Giảng Võ, Cát Linh, Đống Đa, Hà Nội, Việt Nam",105.8219868,21.0251788
7972638678599937484,1286972671801264512,food,CÔNG TY TNHH DỊCH VỤ THỰC PHẨM VÀ GIẢI KHÁT CÁNH DIỀU XANH,"Tầng 5, Tòa nhà Sài Gòn Royal, số 91 Pasteur, Phường Bến Nghé, Quận 1, TP.HCM",BurgerKing Giảng Võ,"Gian 2, Tầng 1, Nhà C4 Giảng Võ, Phường Giảng Võ, Quận Ba Đình, Hà Nội, VIỆT NAM",105.8219983,21.0258395
2314655369686142597,4887819181603705540,fnb,CHÁO GIA TRUYỀN THANH TÂM,"224c4 vĩnh hồ, Phường Ngã Tư Sở, Quận Đống Đa, Hà Nội, VIỆT NAM",Cháo Gia Truyền Thanh Tâm,"224c4 vĩnh hồ, Phường Ngã Tư Sở, Quận Đống Đa, Hà Nội, VIỆT NAM",105.8220529,21.0050888
6947600923794307672,6239766298768623726,fnb,Công ty cổ phần KOMBO,"60 Lê Văn Thiêm, Phường Nhân Chính, Quận Thanh Xuân, Hà Nội",Kombo Vương Thừa Vũ,"78 Vương Thừa Vũ, Phường Khương Trung, Quận Thanh Xuân, Hà Nội, VIỆT NAM",105.822143,20.999013
3232333568492323330,6893562897648407753,beverage,CN HÀ NỘI – Công ty TNHH Gongcha Việt Nam,"Số 63 Chùa Bộc, Phường Trung Liệt, Quận Đống Đa, Hà Nội",Gong Cha Giảng Võ,"D2 Giảng Võ, Phường Ngọc Hà, Quận Ba Đình, Hà Nội, VIỆT NAM",105.8222874,21.0261162
3937139360851577671,8112427337611548616,fnb,Rosso Café,Sạp 66 Chợ Hàng Bè Phường Chương Dương Quận Hoàn Kiếm Hà Nội,Rosso Café,"296 Tây Sơn, Phường Ngã Tư Sở, Quận Đống Đa, Hà Nội, VIỆT NAM",105.8224995,21.0069216
6949141615268452466,1410090508832271433,fnb,Trà Sữa T - CAT,"3 Ngõ 3 Thái Hà, Phường Trung Liệt, Quận Đống Đa, Hà Nội, VIỆT NAM",Trà Sữa T - CAT,"Số 3 Ngõ 3  Thái Hà, Phường Trung Liệt, Quận Đống Đa, Hà Nội, VIỆT NAM",105.8225428,21.0090753
1331731186241134178,4270038020962144343,other offline payment services,"CÔNG TY TNHH BÁN LẺ SAKUKO VIỆT NAM ","Tầng 4 tòa nhà Trung Yên Plaza Lô đất o17, khu đô thị Trung Yên, , Phường Trung Hoà, Quận Cầu Giấy, Hà Nội, VIỆT NAM",Sakuko Đội Cấn,"209 Đội Cấn, Phường Ngọc Hà, Quận Ba Đình, Hà Nội, VIỆT NAM",105.8226314,21.0352522
8405759108835333857,6906291667783403499,food,Công Ty TNHH Bán Lẻ Sakuko Việt Nam,"Tầng 4, Tòa nhà Trung Yên Plaza Lô Đất O17, Khu đô thị Trung Yên, Phường Trung Hòa, Quận Cầu Giấy, Hà Nội, VIỆT NAM",Beard Papa's Đội Cấn,"209 Đội Cấn, Phường Ngọc Hà, Quận Ba Đình, Hà Nội, VIỆT NAM",105.8226314,21.0352522
5628731143176480866,713544430942048822,fnb,Foglian Coffee,"56/298  Tây Sơn, Phường Ngã Tư Sở, Quận Đống Đa, Hà Nội, VIỆT NAM",Foglian Coffee,"56/298 Tây Sơn, Phường Ngã Tư Sở, Quận Đống Đa, Hà Nội, VIỆT NAM",105.8227346,21.0066161
6206751151934350967,9195334149098937215,fnb,Công ty TNHH Thể Thao Đường Phố,"SN 27, Ngách 14/3, Ngõ 3  Pháo Đài Láng, Phường Láng Thượng, Quận Đống Đa, Hà Nội, VIỆT NAM",Thế Giới Giày Patin Đặng Tiến Đông,"121 Đặng Tiến Đông, Phường Trung Liệt, Quận Đống Đa, Hà Nội, VIỆT NAM",105.8231424,21.0128353
642428637310777258,7997036188457379434,fnb,"Công ty TNHH lương thực và thực phẩm Miefood ","12 ngách 5  ngõ 178 Tây Sơn, Phường Trung Liệt, Quận Đống Đa, Hà Nội, VIỆT NAM",Mie Food,"12 Đặng tiến đông , Phường Trung Liệt, Quận Đống Đa, Hà Nội, VIỆT NAM",105.823204,21.01293
7272637017843485142,4210447059071706322,fnb,Công ty Cổ Phần V-Food Việt Nam,"Số 20, Ngõ 145 Nguyễn Văn Cừ, Phường Ngọc Lâm, Quận Long Biên, Hà Nội, VIỆT NAM",Sarimi Nguyễn Ngọc Nại,"87 Nguyễn Ngọc Nại, Phường Khương Đình, Quận Thanh Xuân, Hà Nội, VIỆT NAM",105.823338,21.000017
4637408188978709949,3373222955096227878,fnb,Mr Sạch Coffee,"18 Võ Văn Dũng, Phường Trung Liệt, Quận Đống Đa, Hà Nội, VIỆT NAM",Mr Sạch Coffee 1,"18  Võ Văn Dũng, Phường Phương Liên, Quận Đống Đa, Hà Nội, VIỆT NAM",105.8236613,21.0159475
6573947514783036540,6448759027223610798,null,Công Ty CP Những Hạt Cà Phê Nói Chuyện,"29 ngõ 93 phố Vũ Hữu  Khuất Duy Tiến, Phường Thanh Xuân Bắc, Quận Thanh Xuân, Hà Nội, VIỆT NAM",TWTTER BEANS COFFEE MIPE,"Tầng 1 TTTM Lotte Mart, 229 Tây Sơn, quận Đống Đa, Hà Nội",105.8237396,21.0053562
8532453824534521631,8195782436963691781,fnb,"Công Ty Trách Nhiệm Hữu Hạn SAVOR Việt Nam ","Số 108 Nguyễn Chí Thanh, Phường Láng Thượng, Quận Đống Đa, Hà Nội, VIỆT NAM",Savor 187 Đội Cấn,"187 Đội Cấn, Ba Đình, Hà Nội, Việt Nam",105.8239,21.035075
5254920233222510111,5205852676321353372,fnb,TÙNG BOOK COFFEE,"Số 6 ngõ 71 Trần Quang Diệu, Phường Ô Chợ Dừa, Quận Đống Đa, Hà Nội, VIỆT NAM",tungbook1,"số 6 ngõ 71 Trần Quang Diệu, Phường Ô Chợ Dừa, Quận Đống Đa, Hà Nội, VIỆT NAM",105.8240417,21.0147158
8532453824534521631,5977500319817781559,fnb,"Công Ty Trách Nhiệm Hữu Hạn SAVOR Việt Nam ","Số 108 Nguyễn Chí Thanh, Phường Láng Thượng, Quận Đống Đa, Hà Nội, VIỆT NAM",SAVOR GIẢNG VÕ,"120 Giảng Võ, Phường Giảng Võ, Quận Ba Đình, Hà Nội, VIỆT NAM",105.8241851,21.0273589
6947600923794307672,7089296185640003830,fnb,Công ty cổ phần KOMBO,"60 Lê Văn Thiêm, Phường Nhân Chính, Quận Thanh Xuân, Hà Nội",Kombo Linh Đàm,"Kiot 18, tòa nhà Rainbow, khu đô thị Tây Nam Linh Đàm, Hoàng Mai, Hà Nội",105.824473,20.96275
7422214414468023904,3085473865311400116,fnb,CƠM GÀ QUẢNG BÌNH,"kiot 46 ngõ 85 Khương Thượng, Phường Khương Thượng, Quận Đống Đa, Hà Nội, VIỆT NAM",comgaquangbinh1,"kiot 46 ngõ 85 Khương Thượng, Phường Khương Thượng, Quận Đống Đa, Hà Nội, VIỆT NAM",105.824492,21.006568
3175830236984461287,6563625425299528494,fnb,BBQ Chicken,"107 Giảng Võ, Phường Cát Linh, Quận Đống Đa, Hà Nội, VIỆT NAM",BBQ Chicken,"107 Giảng Võ, Phường Cát Linh, Quận Đống Đa, Hà Nội, VIỆT NAM",105.8245944,21.0271826
6072842575474785945,5340026249485080820,fnb,Cơm Huệ,"152 Thụy Khuê, Phường Thụy Khuê, Quận Tây Hồ, Hà Nội, VIỆT NAM",Cơm Huệ,"152 Thụy Khuê, Yên Phụ, Quận Tây Hồ, Hà Nội, VIỆT NAM",105.8246266,21.046133
3505676199538325604,2635411458315399525,fnb,HOLIMIX COFFEE,"24 Hoàng Cầu, Phường Ô Chợ Dừa, Quận Đống Đa, Hà Nội, VIỆT NAM",Holimix coffee 1,"24 Hoàng Cầu, Phường Ô Chợ Dừa, Quận Đống Đa, Hà Nội, VIỆT NAM",105.8250986,21.0199531
5113986239198861541,4656642464951587069,fnb,CaFe Phim Jones coffee film,"44 ngõ 19 Trần Quang Diệu, Phường Ô Chợ Dừa, Quận Đống Đa, Hà Nội, VIỆT NAM",CaFe Phim Jones coffee film 1,"44 ngõ 19 Trần Quang Diệu, Phường Ô Chợ Dừa, Quận Đống Đa, Hà Nội, VIỆT NAM",105.8257701,21.0156863
2972817004937296222,5288473188545233224,fnb,Quán Cơm quê,"49 Vũ Thạnh, Phường Ô Chợ Dừa, Quận Đống Đa, Hà Nội, VIỆT NAM",Quán Cơm quê,"49 Vũ Thạnh, Phường Ô Chợ Dừa, Quận Đống Đa, Hà Nội, VIỆT NAM",105.8262184,21.0267276
5976334042179721339,8948755137380694078,supermarket,CÔNG TY TNHH MARUTAMART,"11  Nguyễn Biểu , Phường Quán Thánh, Quận Ba Đình, Hà Nội, VIỆT NAM",MARUMART Xuân Diệu,"170A  Xuân Diệu, Phường Quảng An, Quận Tây Hồ, Hà Nội, VIỆT NAM",105.8265895,21.066493
8679358109832507197,3008621408640053045,fnb,Cafe Hào Nam,"32B Hào Nam, Phường Trung Liệt, Quận Đống Đa, Hà Nội, VIỆT NAM",Cafe Hào Nam 1,"32B  Hào Nam, Phường Phương Liên, Quận Đống Đa, Hà Nội, VIỆT NAM",105.8266861,21.0223344
1529371805079198010,8344906592947126140,fnb,TORANO,"1165 Giải Phóng, Phường Thịnh Liệt, Quận Hoàng Mai, Hà Nội, VIỆT NAM",Torano 128 Giảng Võ,"128 Giảng Võ, Phường Giảng Võ, Quận Ba Đình, Hà Nội, VIỆT NAM",105.827025,21.0295169
7549210150399079702,3181081454660562065,fnb,BÚN CÁ 164 Ô CHỢ DỪA,"164  Ô Chợ Dừa, Phường Ô Chợ Dừa, Quận Đống Đa, Hà Nội, VIỆT NAM",bunca1641,"164 Ô Chợ Dừa, Phường Ô Chợ Dừa, Quận Đống Đa, Hà Nội, VIỆT NAM",105.827057,21.0200944
9107214669541149753,9157067349121429927,food,CÔNG TY CỔ PHẦN FC & KMEAT VIỆT NAM,"230 Phố Xá Đàn, Phường Phương Liên, Quận Đống Đa, Hà Nội, VIỆT NAM",FOODHOUSE HỒ ĐẮC DI,"157  Hồ Đắc Di, Phường Phương Liên, Quận Đống Đa, Hà Nội, VIỆT NAM",105.827136,21.0133181
4476621886561365668,6851707873519708843,fnb,CHÈ SẦU THỂ GIAO,"Số 151A Ô Chợ Dừa, Phường Ô Chợ Dừa, Quận Đống Đa, Hà Nội, VIỆT NAM",chesauthegiao1,"số 151 Ô Chợ Dừa, Phường Ô Chợ Dừa, Quận Đống Đa, Hà Nội, VIỆT NAM",105.8272524,21.0201325
1331731186241134178,9087914875198413239,other offline payment services,"CÔNG TY TNHH BÁN LẺ SAKUKO VIỆT NAM ","Tầng 4 tòa nhà Trung Yên Plaza Lô đất o17, khu đô thị Trung Yên, , Phường Trung Hoà, Quận Cầu Giấy, Hà Nội, VIỆT NAM",Sakuko Linh Đàm,"Kiot 12 Tòa HH2B - KĐT Linh Đàm, Xã Quỳnh Liên, Quận Hoàng Mai, Hà Nội, VIỆT NAM",105.8276792,20.9648654
6110808841565436310,5362114968104780903,fnb,Súp Cua Hoa,"106 Ô Chợ Dừa, Phường Ô Chợ Dừa, Quận Đống Đa, Hà Nội, VIỆT NAM",Súp Cua Hoa,"106 Ô Chợ Dừa, Phường Ô Chợ Dừa, Quận Đống Đa, Hà Nội, VIỆT NAM",105.8279218,21.0196348
3893968759609682715,1184453281143274854,fnb,Pháo Cafe,"188 Thái Thịnh, Phường Láng Hạ, Quận Đống Đa, Hà Nội, VIỆT NAM",Pháo Cafe,"31 Ngõ 135 Đội Cấn, Ba Đình, Hà Nội, Việt Nam",105.8279761,21.0352075
1331731186241134178,3083919648742367236,other offline payment services,"CÔNG TY TNHH BÁN LẺ SAKUKO VIỆT NAM ","Tầng 4 tòa nhà Trung Yên Plaza Lô đất o17, khu đô thị Trung Yên, , Phường Trung Hoà, Quận Cầu Giấy, Hà Nội, VIỆT NAM",Sakuko Nguyễn Lương Bằng,"168 Nguyễn Lương Bằng, Phường Quang Trung, Quận Đống Đa, Hà Nội, VIỆT NAM",105.828208,21.015826
8405759108835333857,2891012707903187216,food,Công Ty TNHH Bán Lẻ Sakuko Việt Nam,"Tầng 4, Tòa nhà Trung Yên Plaza Lô Đất O17, Khu đô thị Trung Yên, Phường Trung Hòa, Quận Cầu Giấy, Hà Nội, VIỆT NAM",Beard Nguyễn Lương Bằng,"168 Nguyễn Lương Bằng, Phường Trung Liệt, Quận Đống Đa, Hà Nội, VIỆT NAM",105.828208,21.015826
2883473754778890331,6246190086141808345,fnb,YOUONE HOTDOG,"Số 51 Ô Chợ Dừa, Phường Ô Chợ Dừa, Quận Đống Đa, Hà Nội, VIỆT NAM",You One Hot Dog,"số 51 Ô Chợ Dừa, Phường Ô Chợ Dừa, Quận Đống Đa, Hà Nội, VIỆT NAM",105.8287672,21.0191793
5986993037282341163,2647671837720006497,fnb,Trà Sữa FANCHA,"Số 51B Ô Chợ Dừa, Phường Ô Chợ Dừa, Quận Đống Đa, Hà Nội, VIỆT NAM",FANCHA,"Số 51B Ô Chợ Dừa, Phường Ô Chợ Dừa, Quận Đống Đa, Hà Nội, VIỆT NAM",105.8288848,21.0191431
3411078897447237934,560370752825895211,fnb,HỘ KINH DOANH CỬA HÀNG TRÀ SỮA FOGO VIỆT NAM,"51A Ô Chợ Dừa, Phường Ô Chợ Dừa, Quận Đống Đa, Hà Nội, VIỆT NAM",FOGO,"51A Ô Chợ Dừa, Phường Ô Chợ Dừa, Quận Đống Đa, Hà Nội, VIỆT NAM",105.8289272,21.0192293
2321309504684175259,7936793321421880856,fnb,Êmm Drink,"số 76 Tôn Thất Tùng, Phường Khương Thượng, Quận Đống Đa, Hà Nội, VIỆT NAM",Êmm Drink,"76 Tôn Thất Tùng, Phường Khương Thượng, Quận Đống Đa, Hà Nội, VIỆT NAM",105.8291741,21.0015117
7909444155349751696,6194574542233933987,fnb,"Công ty TNHH Nông Nghiệp Hòn Đất ","11 Hoàng Văn Thái, Phường Khương Mai, Quận Thanh Xuân, Hà Nội, VIỆT NAM",Bác Tôm,"112 Sơn Tây, Phường Kim Mã, Quận Ba Đình, Hà Nội, VIỆT NAM",105.829372,21.032634
7909444155349751696,6394643824764895899,fnb,"Công ty TNHH Nông Nghiệp Hòn Đất ","11 Hoàng Văn Thái, Phường Khương Mai, Quận Thanh Xuân, Hà Nội, VIỆT NAM",Bác Tôm,"11 Hoàng Văn Thái, Phường Khương Mai, Quận Thanh Xuân, Hà Nội, VIỆT NAM",105.829382,20.9969499
1639407304044097994,7241978947498030782,fnb,Hộ Kinh Doanh Bùi Danh Nhân,"71 Hồ Đắc Di, Phường Nam Đồng, Quận Đống Đa, Hà Nội, VIỆT NAM",Gà Rán Ngưu Ma Vương 0,"71  Hồ Đắc Di, Phường Nam Đồng, Quận Đống Đa, Hà Nội, VIỆT NAM",105.829642,21.012016
7272637017843485142,2758077471615274256,fnb,Công ty Cổ Phần V-Food Việt Nam,"Số 20, Ngõ 145 Nguyễn Văn Cừ, Phường Ngọc Lâm, Quận Long Biên, Hà Nội, VIỆT NAM",Luôn Tươi Sạch Tôn Thất Tùng,"36A Tôn Thất Tùng, Phường Kim Liên, Quận Đống Đa, Hà Nội, VIỆT NAM",105.830018,21.003305
1324711243256079431,984062579161568116,shopping,CÔNG TY TNHH ROUTINE VIỆT NAM,"68 Nguyễn Huệ, Phường Bến Nghé, Quận 1, TP Hồ Chí Minh",Routine Chùa Bộc,"35 Chùa Bộc, Quang Trung, Đống Đa, Hà Nội, Việt Nam",105.830209,21.006742
5190410911577532601,2463154945464336474,fnb,Hoa Chanh Coffee,"69/10 Tôn Thất Tùng, Phường Khương Thượng, Quận Đống Đa, Hà Nội, VIỆT NAM",Hoa Chanh Coffee,"69/10 Tôn Thất Tùng, Phường Khương Thượng, Quận Đống Đa, Hà Nội, VIỆT NAM",105.8306074,21.0048162
4719769865534913696,1637060492221080789,food,Công Ty TNHH Đức Nhân,"23L Hai Bà Trưng, Phường Đồng Xuân, Quận Hoàn Kiếm, Hà Nội, VIỆT NAM",Al Fresco's Xuân Diệu,"62 Xuân Diệu, Yên Phụ, Quận Tây Hồ, Hà Nội, VIỆT NAM",105.830778,21.061849
4719769865534913696,8826552917519094364,food,Công Ty TNHH Đức Nhân,"23L Hai Bà Trưng, Phường Đồng Xuân, Quận Hoàn Kiếm, Hà Nội, VIỆT NAM",Pepperoni's Huỳnh Thúc Kháng,"13 Huỳnh Thúc Kháng, Phường Láng Hạ, Quận Đống Đa, Hà Nội, VIỆT NAM",105.830778,21.061849
140199532649262575,1390526967784118604,fnb,Bún Sườn Chua,"181 Xã Đàn , Phường Ô Chợ Dừa, Quận Đống Đa, Hà Nội, VIỆT NAM",Bún Sườn Chua 1,"181 Xã Đàn, Phường Ô Chợ Dừa, Quận Đống Đa, Hà Nội, VIỆT NAM",105.8308738,21.0174415
4259817312070497624,5248512202647693906,fnb,Bánh cuốn 77 Đặng Văn Ngữ,"77 Đặng Văn Ngữ, Phường Trung Tự, Quận Đống Đa, Hà Nội, VIỆT NAM","Bánh cuốn 77 Đặng Văn Ngữ ","77 Đặng Văn Ngữ, Phường Trung Tự, Quận Đống Đa, Hà Nội, VIỆT NAM",105.8314429,21.009371
8622242012958029898,5739273663983916267,fnb,Royal Tea,"215 Tôn Đức Thắng, Phường Hàng Bột, Quận Đống Đa, Hà Nội, VIỆT NAM",Royal Tea,"215 Tôn Đức THắng, Phường Hàng Bột, Quận Đống Đa, Hà Nội, VIỆT NAM",105.83149,21.021715
3891264094863370703,1984484776528370350,fnb,CỘT ĐIỆN QUÁN,"71 Đặng Văn Ngữ, Phường Trung Tự, Quận Đống Đa, Hà Nội, VIỆT NAM",CỘT ĐIỆN QUÁN,"71 Đặng Văn Ngữ, Phường Trung Tự, Quận Đống Đa, Hà Nội, VIỆT NAM",105.83163,21.0089739
4501300687807117702,526560246977749532,beverage,CÔNG TY TNHH MỸ THỰC HƯNG THỊNH,"Số 128 Tân Mai, Phường Tân Mai, Quận Hoàng Mai, Hà Nội",Feeling Tea Phạm Ngọc Thạch,"100 Phạm Ngọc Thạch, Trung Tự, Đống Đa, Hà Nội, Việt Nam",105.831676,21.006665
2444871135670595807,2942088414886719762,other offline payment services,CÔNG TY CỔ PHẦN THƯƠNG MẠI GLOBAL FASHION,"96 Cao Thắng, Phường 4, Quận 3, Thành Phố Hồ Chí Minh, VIỆT NAM",Vascara Xã Đàn,"390 Xã Đàn, quận Đống Đa, Hà Nội, Việt Nam",105.8317807,21.0164153
9090494937141424170,5228751470814202977,fnb,Phở Gà Ta-Bún Dọc Mùng,"102B Đông Tác, Phường Kim Liên, Quận Đống Đa, Hà Nội, VIỆT NAM",Phở Gà Ta-Bún Dọc Mùng,"102B Đông Tác, Phường Kim Liên, Quận Đống Đa, Hà Nội, VIỆT NAM",105.831926,21.005863
2525273299922420160,714902980405580952,fnb,Tào Phớ Lụa,"12c Trịnh Hoài Đức, Phường Cát Linh, Quận Đống Đa, Hà Nội, VIỆT NAM",Tào Phớ Lụa,"12c Trịnh Hoài Đức, Phường Cát Linh, Quận Đống Đa, Hà Nội, VIỆT NAM",105.8319902,21.0294747
5272997585295521260,5059198021499915385,beverage,"CÔNG TY TNHH THƯƠNG MẠI QUỐC TẾ  VƯỢNG HÀ ","43 Phó Đức Chính, Phường Trúc Bạch, Quận Ba Đình, Hà Nội, VIỆT NAM",Sharetea Phạm Ngọc Thạch,"88 Phạm Ngọc Thạch, Phường Phương Liên, Quận Đống Đa, Hà Nội, VIỆT NAM",105.831999,21.006958
4730842644649314178,6428369174696209002,fnb,MR GOOD TEA,"212  Lê Trọng Tấn, Phường Khương Mai, Quận Thanh Xuân, Hà Nội, VIỆT NAM",MR GOODTEA,"212 Lê Trọng Tấn, Phường Khương Mai, Quận Thanh Xuân, Hà Nội, VIỆT NAM",105.832202,20.992677
2444871135670595807,922039331193965368,other offline payment services,CÔNG TY CỔ PHẦN THƯƠNG MẠI GLOBAL FASHION,"96 Cao Thắng, Phường 4, Quận 3, Thành Phố Hồ Chí Minh, VIỆT NAM",VAS - Thái Nguyên,"149 Đường Hoàng Văn Thụ, Phan Đình Phùng, Thành phố Thái Nguyên, tỉnh Thái Nguyên, Việt Nam",105.832356,21.5907776
6731818028068710847,3332691264501603182,fnb,Gà Lắc 154,"154 Kim Hoa, Phường Phương Liên, Quận Đống Đa, Hà Nội, VIỆT NAM",GÀ LẮC,"Ngã Ba Nam Đồng Phố Nam Đồng, Phường Phương Liên, Quận Đống Đa, Hà Nội, VIỆT NAM",105.8330576,21.0132934
2424378769063252959,7813571611346446040,fnb,Quán Sành,"8 ngõ 97 Phạm Ngọc Thạch, Phường Trung Tự, Quận Đống Đa, Hà Nội, VIỆT NAM",Quán Sành 1,"8 ngõ 97 Phạm Ngọc Thạch, Phường Trung Tự, Quận Đống Đa, Hà Nội, VIỆT NAM",105.833191,21.0073476
5051997657856298904,8311259071601185735,supermarket,Công Ty TNHH Wang Wang Việt Nam,"Số 29 Bùi Huy Bích,Phường Hoàng Liệt,Quận Hoàng Mai,Thành Phố Hà Nội,Việt Nam",Công Ty TNHH Wang Wang Việt Nam,"Ngõ 41- Phố Đông Tác, Đống Đa, Hà Nội, Việt Nam",105.8332754,21.004079
8264084576019958240,4534655880771603937,fnb,4 Seasons- Chè Trà Kem,"17B14 Phạm Ngọc Thạch, Phường Trung Liệt, Quận Đống Đa, Hà Nội, VIỆT NAM",4 Season chè trà kem,"17B14 Phạm Ngọc Thạch, Phường Trung Liệt, Quận Đống Đa, Hà Nội, VIỆT NAM",105.8337961,21.0083228
3402112950160040738,5397718126184419942,fnb,Quán Khói,"Ngõ 360 Xã Đàn, Phường Ô Chợ Dừa, Quận Đống Đa, Hà Nội, VIỆT NAM",Quán Khói 1,"Ngõ 360 Xã Đàn, Phường Ô Chợ Dừa, Quận Đống Đa, Hà Nội, VIỆT NAM",105.8340038,21.0142161
1647697340456016579,5746675392476107568,fnb,Nhà Hàng Cao Phong,"Số 9 Ngõ 82 Phạm Ngọc Thạch, Phường Phương Liên, Quận Đống Đa, Hà Nội, VIỆT NAM",Nhà Hàng Cao Phong,"Số 9 Ngõ 82  Phạm Ngọc Thạch, Phường Phương Liên, Quận Đống Đa, Hà Nội, VIỆT NAM",105.834621,21.00637
1738450818260989695,7158500996512123013,fnb,Tiệm bánh Chez Moi,"10 Khán Đài B Hàng Cháo, Phường Ô Chợ Dừa, Quận Đống Đa, Hà Nội, VIỆT NAM",Tiệm bánh Chez Moi 1," 10 Khán Đài B Hàng Cháo, Phường Ô Chợ Dừa Hàng Cháo, Phường Ô Chợ Dừa, Quận Đống Đa, Hà Nội, VIỆT NAM",105.8347159,21.02987
8704399662923415118,8059276964385390243,fnb,Ốc Chuối Đậu,"101 B6 lương định của, Phường Kim Liên, Quận Đống Đa, Hà Nội, VIỆT NAM",Ốc Chuối Đậu,"101 B6 lương định của, Phường Kim Liên, Quận Đống Đa, Hà Nội, VIỆT NAM",105.8357495,21.0028119
5478110711664307154,6703693674794679111,beverage,Công  Ty  TNHH TM DV AMANTE Việt Nam,"75 Lý Thường Kiệt, Phường Trần Hưng, Đạo, Quận Hoàn Kiếm, Hà Nội",Taster's Choice Lương Định Của,"4 - B14 Lương Định Của, Hà Nội",105.836114,21.004979
6835189764919746072,4132762970393719878,fnb,B59 COFFEE,"370  Thái Hà, Phường Láng Hạ, Quận Đống Đa, Hà Nội, VIỆT NAM",B59 Coffee,"Số 11 Đường Thanh Niên, Phường Quán Thánh, Quận Ba Đình, Hà Nội",105.8362636,21.0441196
9107214669541149753,4728937948050436348,food,CÔNG TY CỔ PHẦN FC & KMEAT VIỆT NAM,"230 Phố Xá Đàn, Phường Phương Liên, Quận Đống Đa, Hà Nội, VIỆT NAM",Gangnam steak Xã Đàn,"230 Xã Đàn, Phường Ô Chợ Dừa, Quận Đống Đa, Hà Nội, VIỆT NAM",105.8363256,21.0120654
8532453824534521631,5882570553855602273,fnb,"Công Ty Trách Nhiệm Hữu Hạn SAVOR Việt Nam ","Số 108 Nguyễn Chí Thanh, Phường Láng Thượng, Quận Đống Đa, Hà Nội, VIỆT NAM",Savor 154 Khâm Thiên,"154 Khâm Thiên, Đống Đa, Hà Nội, Việt Nam",105.8365271,21.0192048
3212306419124035752,2985118371801457735,other offlinepayment,CÔNG TY LIÊN DOANH TNHH BERJAYA - HỒ TÂY,"Nghi Tàm, Quảng An, Tây Hồ, Hà Nội, Việt Nam",OVEN D'OR RESTAURANT,"Nghi Tàm, Quảng An, Tây Hồ, Hà Nội, Việt Nam",105.837266,21.0542929
6959023445664812314,3329137464129453322,fnb,CÔNG TY TNHH XUẤT NHẬP KHẨU THƯƠNG MẠI AN MINH,"Số 20, ngõ 145 Nguyễn Văn Cừ, Phường Ngọc Lâm, Quận Long Biên, Thành phố Hà Nội",f5fruitshop1,"100 Khâm Thiên, Phường Khâm Thiên, Quận Đống Đa, Hà Nội, VIỆT NAM",105.837617,21.019077
8096805314010429417,5311425488366265100,food,CÔNG TY TNHH PARIS BAGUETTE HÀ NỘI,"Tầng 9, Tòa nhà văn phòng AC  Lô A1A cụm TTCN&CNN, Phường Dịch Vọng Hậu, Quận Cầu Giấy, Hà Nội, VIỆT NAM",Paris Lake View,"28 Thanh Niên, Yên Phụ, Tây Hồ, Hà Nội",105.8387847,21.0493319
3930568325289511699,2425270690171757788,fnb,Nhà hàng Hoa Sen ( lotus cafe),"9 Đào Duy Anh, Phường Phương Liên, Quận Đống Đa, Hà Nội, VIỆT NAM","Nhà hàng Hoa Sen 1 ( lotus cafe) ","9  Đào Duy Anh, Phường Phương Liên, Quận Đống Đa, Hà Nội, VIỆT NAM",105.8389152,21.0082056
1529371805079198010,7163351377837717880,fnb,TORANO,"1165 Giải Phóng, Phường Thịnh Liệt, Quận Hoàng Mai, Hà Nội, VIỆT NAM",Torano Xã Đàn,"424 Xã Đàn, Phương Liên, Hà Nội, Việt Nam",105.839173,21.0084356
6246455540529687045,7518583846967389572,fnb,Cafe Bùi,"63B Nguyễn Khuyến, Phường Văn Miếu, Quận Đống Đa, Hà Nội, VIỆT NAM",Cafe Bùi 1,"63B Nguyễn Khuyến, Phường Văn Miếu, Quận Đống Đa, Hà Nội, VIỆT NAM",105.839331,21.028096
7272637017843485142,8328896643994953580,fnb,Công ty Cổ Phần V-Food Việt Nam,"Số 20, Ngõ 145 Nguyễn Văn Cừ, Phường Ngọc Lâm, Quận Long Biên, Hà Nội, VIỆT NAM",Sarimi Trần Quý Cáp,"16 Trần Quý Cáp, Phường Văn Miếu, Quận Đống Đa, Hà Nội, VIỆT NAM",105.840103,21.027092
2930026672445728600,6337214534986334078,fnb,Công ty TNHH Truyền Thông Xuân Vũ,"Số 60, ngõ 22 phố Phan Đình Giót, P.Phương Liệt, Q.Thanh Xuân, Hà Nội",Xuân Vũ Audio Phố Vọng,"67 Phố Vọng, Phường Đồng Tâm, Quận Hai Bà Trưng, Hà Nội, VIỆT NAM",105.842103,20.998872
822043397492434507,5714823243359888563,shopping,Công ty TNHH Dalat Hasfarm,"Số 450 Nguyên Tử Lực, Phường 8, Thành phố Đà Lạt, Lâm Đồng",Dalat Hasfarm HN Hai Bà Trưng,"73 Hai Bà Trưng, Phường Cửa Nam, Quận Hoàn Kiếm, Hà Nội, VIỆT NAM",105.8424408,21.0271733
6106253060430341681,1704829006507968962,fnb,Atelier Coffee Roaster,"65A Tôn Thất Thiệp , Phường Điện Biên, Quận Ba Đình, Hà Nội, VIỆT NAM",Atelier Coffee Roaster 1,"65A Tôn Thất Thiệp, Phường Điện Biên, Quận Ba Đình, Hà Nội, VIỆT NAM",105.8428671,21.0302201
100670421557790535,1273185289080977831,fnb,BÁNH MỲ ZÒN,"22 Cửa Bắc, Phường Trúc Bạch, Quận Ba Đình, Hà Nội, VIỆT NAM",BÁNH MỲ ZÒN 1,"22 Cửa Bắc, Phường Đồng Xuân, Quận Hoàn Kiếm, Hà Nội, VIỆT NAM",105.84309,21.045424
2899266241547759654,1112951465053963540,fnb,Odin Coffee,"33  Nguyễn Đình Thi, Yên Phụ, Quận Tây Hồ, Hà Nội, VIỆT NAM",Odin Coffee 2,"24 Cửa Bắc, Phường Quán Thánh, Quận Ba Đình, Hà Nội, VIỆT NAM",105.8431462,21.0451501
1188886319037313063,6025808553964437513,fnb,Công ty TNHH NHà Hàng Vela,"35 Hàng Vôi, Phường Lý Thái Tổ, Quận Hoàn Kiếm, Hà Nội, VIỆT NAM",Lẩu Nướng Vela 2,"103E3 Lê Thanh Nghị, Phường Đồng Tâm, Quận Hai Bà Trưng, Hà Nội, VIỆT NAM",105.843391,21.001777
6982231443388607098,4957594896532543109,fnb,FRUITSDAY,"63 Nguyễn Du, Phường Nguyễn Du, Quận Hai Bà Trưng, Hà Nội, VIỆT NAM",FRUITSDAY 1,"63 Nguyễn Du, Phường Nguyễn Du, Quận Hai Bà Trưng, Hà Nội, VIỆT NAM",105.8437658,21.0198057
5976334042179721339,1001535360654139141,supermarket,CÔNG TY TNHH MARUTAMART,"11  Nguyễn Biểu , Phường Quán Thánh, Quận Ba Đình, Hà Nội, VIỆT NAM",Marumart Aqua,"44 Yên Phụ, Trúc Bạch, Ba Đình, Hà Nội, Việt Nam",105.844382,21.045977
1331731186241134178,1576435925508784819,other offline payment services,"CÔNG TY TNHH BÁN LẺ SAKUKO VIỆT NAM ","Tầng 4 tòa nhà Trung Yên Plaza Lô đất o17, khu đô thị Trung Yên, , Phường Trung Hoà, Quận Cầu Giấy, Hà Nội, VIỆT NAM",Sakuko Nguyễn Du,"76 Nguyễn Du, Phường Bùi Thị Xuân, Quận Hai Bà Trưng, Hà Nội, VIỆT NAM",105.844476,21.019808
8405759108835333857,1000377857974285127,food,Công Ty TNHH Bán Lẻ Sakuko Việt Nam,"Tầng 4, Tòa nhà Trung Yên Plaza Lô Đất O17, Khu đô thị Trung Yên, Phường Trung Hòa, Quận Cầu Giấy, Hà Nội, VIỆT NAM",Beard Nguyễn Du,"76 Nguyễn Du, Phường Bùi Thị Xuân, Quận Hai Bà Trưng, Hà Nội, VIỆT NAM",105.844476,21.019808
1238760765024775632,7802776717030525059,food,CÔNG TY CỔ PHẦN DỊCH VỤ THỰC PHẨM VÀNG,"40 HOÀNG DIỆU, Phường 10, Quận Phú Nhuận, Thành Phố Hồ Chí Minh, VIỆT NAM",Gà nướng Ò Ó O 42 Phùng Hưng,"42 Phùng Hưng, Phường Hàng Bông, Quận Hoàn Kiếm, Hà Nội, VIỆT NAM",105.84455,21.029509
5478110711664307154,2749095014911889869,beverage,Công  Ty  TNHH TM DV AMANTE Việt Nam,"75 Lý Thường Kiệt, Phường Trần Hưng, Đạo, Quận Hoàn Kiếm, Hà Nội","Taster's Choice 75 Lý Thường Kiệt ","75 Lý Thường Kiệt, Hà Nội",105.844645,21.025306
5051997657856298904,974199988821120796,supermarket,Công Ty TNHH Wang Wang Việt Nam,"Số 29 Bùi Huy Bích,Phường Hoàng Liệt,Quận Hoàng Mai,Thành Phố Hà Nội,Việt Nam",Công Ty TNHH Wang Wang Việt Nam,"Số 02 BT-1B KĐT Văn Quán,Hà Đông,Hà Nội",105.8449246,20.9671898
8405759108835333857,497513134658774353,food,Công Ty TNHH Bán Lẻ Sakuko Việt Nam,"Tầng 4, Tòa nhà Trung Yên Plaza Lô Đất O17, Khu đô thị Trung Yên, Phường Trung Hòa, Quận Cầu Giấy, Hà Nội, VIỆT NAM",Beard Papa's Hàng Bông,"171  Hàng Bông, Phường Đồng Xuân, Quận Hoàn Kiếm, Hà Nội, VIỆT NAM",105.84499,21.029126
1331731186241134178,8293488434073112640,other offline payment services,"CÔNG TY TNHH BÁN LẺ SAKUKO VIỆT NAM ","Tầng 4 tòa nhà Trung Yên Plaza Lô đất o17, khu đô thị Trung Yên, , Phường Trung Hoà, Quận Cầu Giấy, Hà Nội, VIỆT NAM",Sakuko Hàng Bông,"169-171 Hàng Bông, Phường Đồng Xuân, Quận Hoàn Kiếm, Hà Nội, VIỆT NAM",105.8450189,21.029138
8405759108835333857,1807911272439010581,food,Công Ty TNHH Bán Lẻ Sakuko Việt Nam,"Tầng 4, Tòa nhà Trung Yên Plaza Lô Đất O17, Khu đô thị Trung Yên, Phường Trung Hòa, Quận Cầu Giấy, Hà Nội, VIỆT NAM","Beard Papa's ","36-38 Thợ Nhuộm, Phường Đồng Xuân, Quận Hoàn Kiếm, Hà Nội, VIỆT NAM",105.845252,21.02631
9181422185636075279,6915185242007231739,beverage,Công ty CP Thương mại Dịch vụ Mania,"Số 01-N1, Ngõ 40 Vạn Bảo, P. Liễu Giai, Quận Ba Đình, HN",Gong Cha Lý Thường Kiệt,"56 Lý Thường Kiệt, Phường Cửa Nam, Quận Hoàn Kiếm, Hà Nội, VIỆT NAM",105.8455657,21.0249692
1331731186241134178,753178740982066685,other offline payment services,"CÔNG TY TNHH BÁN LẺ SAKUKO VIỆT NAM ","Tầng 4 tòa nhà Trung Yên Plaza Lô đất o17, khu đô thị Trung Yên, , Phường Trung Hoà, Quận Cầu Giấy, Hà Nội, VIỆT NAM",Sakuko Trần Đại Nghĩa,"94 Trần Đại Nghĩa, Đồng Tâm, Hai Bà Trưng, Hà Nội",105.8457332,20.9980078
1188886319037313063,3398768035189414000,fnb,Công ty TNHH NHà Hàng Vela,"35 Hàng Vôi, Phường Lý Thái Tổ, Quận Hoàn Kiếm, Hà Nội, VIỆT NAM",Lẩu Nướng Vela 2,"112E3 Lê Thanh Nghị, Phường Đồng Tâm, Quận Hai Bà Trưng, Hà Nội, VIỆT NAM",105.8458847,21.001795
716877020031775787,1298220214139535112,fnb,Thìn Béo Quán,"30 ngõ 107 Nguyễn Chí Thanh, Phường Láng Hạ, Quận Đống Đa, Hà Nội, VIỆT NAM",Thìn Béo Quán,"59 Đại Cồ Việt, Lê Đại Hành, Hai Bà Trưng, Hà Nội, Việt Nam",105.846017,21.007712
633626781599368982,7241007355383079410,fnb,CỬA HÀNG TÚ LINH,"19 Hàng Điều, Phường Cửa Đông, Quận Hoàn Kiếm, Hà Nội, VIỆT NAM",Cửa hàng Tú Linh 1,"19 Hàng Điếu, Phường Cửa Đông, Quận Hoàn Kiếm, Hà Nội, VIỆT NAM",105.847068,21.0332811
1238760765024775632,4883816661625125976,food,CÔNG TY CỔ PHẦN DỊCH VỤ THỰC PHẨM VÀNG,"40 HOÀNG DIỆU, Phường 10, Quận Phú Nhuận, Thành Phố Hồ Chí Minh, VIỆT NAM",Gà Nướng Ò Ó O Xóm Hạ Hồi,"26 Xóm Hạ Hồi, Phường Đồng Xuân, Quận Hoàn Kiếm, Hà Nội, VIỆT NAM",105.847096,21.021483
7721286411959026887,1632527009365391905,fnb,Bánh mỳ doner Tràng An ( Tam giác),"65 Đường Thành, Phường Cửa Đông, Quận Hoàn Kiếm, Hà Nội, VIỆT NAM",Bánh mỳ doner Tràng An ( Tam giác) 1,"65  Đường Thành, Phường Cửa Đông, Quận Hoàn Kiếm, Hà Nội, VIỆT NAM",105.847223,21.030935
7909444155349751696,1097520539819318953,fnb,"Công ty TNHH Nông Nghiệp Hòn Đất ","11 Hoàng Văn Thái, Phường Khương Mai, Quận Thanh Xuân, Hà Nội, VIỆT NAM",Cô Nắng,Số 2A Hoa Lư Lê Đại Hành Hai Bà Trưng Hà Nội,105.8476644,21.0114708
1609066667512926923,7797394170125051068,fnb,Nước ép trái cây Hương Juice,"Số 59A Quốc Tử Giám, Phường Văn Chương, Quận Đống Đa, Hà Nội, VIỆT NAM",Nước ép trái cây Hương Juice,"Số 12 Hàng Lược, Phường Hàng Mã, Quận Hoàn Kiếm, Hà Nội, VIỆT NAM",105.847788,21.037908
2693534275260314098,837193665867188321,fnb,TIỆM BÁNH IT,"91 Chùa Láng, Phường Láng Thượng, Quận Đống Đa, Hà Nội, VIỆT NAM",tiembanhit66,"66 Lê Thanh Nghị, Phường Bách Khoa, Quận Hai Bà Trưng, Hà Nội, VIỆT NAM",105.8484442,21.0035646
7768896821901689661,4241434444476080965,fnb,Công ty TNHH CG Garment,"15 ngách 295/53  ngõ Quỳnh, Phường Quỳnh Lôi, Quận Hai Bà Trưng, Hà Nội, VIỆT NAM",Chicbae21,"82 Tuệ Tĩnh, Phường Nguyễn Du, Quận Hai Bà Trưng, Hà Nội, VIỆT NAM",105.8485474,21.0154501
7583220493983739980,5629944112382644950,fnb,CAFE 63,"63 Trần Nhân Tông, Phường Bùi Thị Xuân, Quận Hai Bà Trưng, Hà Nội, VIỆT NAM","LẨU TRƯ KÝ ","63  Trần Nhân Tông, Phường Bùi Thị Xuân, Quận Hai Bà Trưng, Hà Nội, VIỆT NAM",105.848725,21.017005
7583220493983739980,8266097781826689852,fnb,CAFE 63,"63 Trần Nhân Tông, Phường Bùi Thị Xuân, Quận Hai Bà Trưng, Hà Nội, VIỆT NAM",CAFE 63 SINCE 1988,"63  Trần Nhân Tông, Phường Bùi Thị Xuân, Quận Hai Bà Trưng, Hà Nội, VIỆT NAM",105.848725,21.017005
9107214669541149753,7646471289679884487,food,CÔNG TY CỔ PHẦN FC & KMEAT VIỆT NAM,"230 Phố Xá Đàn, Phường Phương Liên, Quận Đống Đa, Hà Nội, VIỆT NAM",FOODSTREET QUANG TRUNG,"25 Quang Trung, Phường Cửa Nam, Quận Hoàn Kiếm, Hà Nội, VIỆT NAM",105.848788,21.022341
9107214669541149753,3053563761387868350,food,CÔNG TY CỔ PHẦN FC & KMEAT VIỆT NAM,"230 Phố Xá Đàn, Phường Phương Liên, Quận Đống Đa, Hà Nội, VIỆT NAM",FOODCENTER BÀ TRIỆU,"98A  Bà Triệu, Phường Đồng Xuân, Quận Hoàn Kiếm, Hà Nội, VIỆT NAM",105.849302,21.018781
3704863353937667980,3335060638004967054,fnb,Công ty Cổ Phần Thương Mại Và Dịch Vụ SBO Việt Nam,"11 Nhà H9, Tập thể trường Đại học Sư Phạm Hà Nội, Phường Dịch Vọng, Quận Cầu Giấy, Hà Nội, VIỆT NAM",Le Monde Steak - VINCOM BÀ TRIỆU,"GH - L5 - 01, Tòa A Vincom Center Bà Triệu,Lê Đại Hành, Hai Bà Trưng, Hà Nội",105.8495642,21.0112421
5254081703095251062,5268510057054549774,other offline payment services,"CÔNG TY CỔ PHẦN THỂ THAO BOOTH 		BOOTH SPORT (VIETNAM) JOINT STOCK COMPANY","163 Phan Đăng Lưu, Phường 1, Quận Phú Nhuận, Thành phố Hồ Chí Minh",Supersport VCBT,"Tòa nhà Vincom 191 Bà Triệu, Hai Bà Trưng, Hà Nội",105.849581,21.011117
8405759108835333857,202684936000232845,food,Công Ty TNHH Bán Lẻ Sakuko Việt Nam,"Tầng 4, Tòa nhà Trung Yên Plaza Lô Đất O17, Khu đô thị Trung Yên, Phường Trung Hòa, Quận Cầu Giấy, Hà Nội, VIỆT NAM",Beard Papa's Lê Đại Hành,"25 Lê Đại Hành, Hai Bà Trưng, Hà Nội",105.849646,21.0099572
8983932419977050595,890741273856609066,beverage,CÔNG TY TNHH TM VÀ ĐẦU TƯ THQ,"532 ĐÊ LA THÀNH, Phường Giảng Võ, Quận Ba Đình, Hà Nội, VIỆT NAM",Sharetea 25 Nhà Thờ,"25  phố Nhà Thờ, Phường Hàng Trống, Quận Hoàn Kiếm, Hà Nội, VIỆT NAM",105.849700,21.028813
8742885012138412111,1763181083841063904,fnb,Lecastella And Leecha Huỳnh Thúc Kháng,"7 Huỳnh Thúc Kháng, Phường Láng Hạ, Quận Đống Đa, Hà Nội, VIỆT NAM",Lecastella And Leecha Lê Đại Hành,"21 Lê Đại Hành, Phường Lê Đại Hành, Quận Hai Bà Trưng, Hà Nội, VIỆT NAM",105.8497817,21.0098648
2639782840193998302,5232309832091618222,fnb,Lương Thu Hương,"18B Phố Nhà Thờ, Phường Đồng Xuân, Quận Hoàn Kiếm, Hà Nội, VIỆT NAM",TAKE EAT EASY,"18B Phố Nhà Thờ, Phường Hàng Trống, Quận Hoàn Kiếm, Hà Nội, VIỆT NAM",105.849838,21.0280999
4719769865534913696,1264748075080513259,food,Công Ty TNHH Đức Nhân,"23L Hai Bà Trưng, Phường Đồng Xuân, Quận Hoàn Kiếm, Hà Nội, VIỆT NAM",Al Fresco's Vincom,"402  Vincom Long Biên, Phường Phúc Lợi, Quận Long Biên, Hà Nội, VIỆT NAM",105.850100,21.011549
6778625465845016942,5879868376087911853,food,Công Ty Cổ Phần Alfresco's Á Châu,"23L Hai Bà Trưng, Phường Đồng Xuân, Quận Hoàn Kiếm, Hà Nội, VIỆT NAM",Al Fresco's Nhà Thờ,"19 Nhà Thờ, Phường Đồng Xuân, Quận Hoàn Kiếm, Hà Nội, VIỆT NAM",105.850242,21.029077
1238760765024775632,2340456484903433473,food,CÔNG TY CỔ PHẦN DỊCH VỤ THỰC PHẨM VÀNG,"40 HOÀNG DIỆU, Phường 10, Quận Phú Nhuận, Thành Phố Hồ Chí Minh, VIỆT NAM",Gà Nướng Ò Ó O Bạch Mai,"348 Bạch Mai, Phường Bạch Mai, Quận Hai Bà Trưng, Hà Nội, VIỆT NAM",105.850745,21.002000
1331731186241134178,3090144208485774671,other offline payment services,"CÔNG TY TNHH BÁN LẺ SAKUKO VIỆT NAM ","Tầng 4 tòa nhà Trung Yên Plaza Lô đất o17, khu đô thị Trung Yên, , Phường Trung Hoà, Quận Cầu Giấy, Hà Nội, VIỆT NAM",Sakuko Bạch Mai,"315 Bạch Mai, Hai Bà Trưng, Hà Nội",105.8509328,21.001325
822043397492434507,6901751663698374158,shopping,Công ty TNHH Dalat Hasfarm,"Số 450 Nguyên Tử Lực, Phường 8, Thành phố Đà Lạt, Lâm Đồng",Dalat Hasfarm HN Bạch Mai,"145 Bạch Mai, Phường Cầu Dền, Quận Hai Bà Trưng, Hà Nội, VIỆT NAM",105.851329,21.005944
6380751752406010726,4911358054556010287,fnb,Bánh Kếp Viet Crepe,"1 Tràng Thi, Phường Hàng Bông, Quận Hoàn Kiếm, Hà Nội, VIỆT NAM",Bánh Kếp Viet Crepe 1,"1 Tràng Thi, Phường Hàng Bông, Quận Hoàn Kiếm, Hà Nội, VIỆT NAM",105.8514152,21.0260337
7972638678599937484,2565093762962908925,food,CÔNG TY TNHH DỊCH VỤ THỰC PHẨM VÀ GIẢI KHÁT CÁNH DIỀU XANH,"Tầng 5, Tòa nhà Sài Gòn Royal, số 91 Pasteur, Phường Bến Nghé, Quận 1, TP.HCM",BurgerKing Hồ Gươm,"3-3b Lê Thái Tổ, Phường Hàng Trống, Quận Hoàn Kiếm, Hà Nội, VIỆT NAM",105.851424,21.032194
1529371805079198010,9023527462650713978,fnb,TORANO,"1165 Giải Phóng, Phường Thịnh Liệt, Quận Hoàng Mai, Hà Nội, VIỆT NAM",Torano 23 Bà Triệu,"23 Bà Triệu, Phường Tràng Tiền, Quận Hoàn Kiếm, Hà Nội, VIỆT NAM",105.8515291,21.0243117
9101699446477793458,7939530969949249179,fnb,Bún Chả Bình Chung,"88 lê văn hưu, Phường Ngô Thì Nhậm, Quận Hai Bà Trưng, Hà Nội, VIỆT NAM",Bún Chả Bình Chung,"88 lê văn hưu, Phường Ngô Thì Nhậm, Quận Hai Bà Trưng, Hà Nội, VIỆT NAM",105.852313,21.018202
4997437366315911536,2698729111385843262,fnb,Khay Coffee,"13 Hàng Khay, Phường Hàng Bài, Quận Hoàn Kiếm, Hà Nội, VIỆT NAM",Khay Coffee,"13 Hàng Khay, Phường Hàng Bài, Quận Hoàn Kiếm, Hà Nội, VIỆT NAM",105.8525544,21.0255466
4719769865534913696,1170356159067694549,food,Công Ty TNHH Đức Nhân,"23L Hai Bà Trưng, Phường Đồng Xuân, Quận Hoàn Kiếm, Hà Nội, VIỆT NAM",Pepperoni's Giảng Võ,"123k1 Giảng Võ, Phường Giảng Võ, Quận Ba Đình, Hà Nội, VIỆT NAM",105.853550,21.023973
4719769865534913696,241942123714528384,food,Công Ty TNHH Đức Nhân,"23L Hai Bà Trưng, Phường Đồng Xuân, Quận Hoàn Kiếm, Hà Nội, VIỆT NAM",Pepperoni's Hàng Trống,"98 Hàng Trống, Phường Cửa Nam, Quận Hoàn Kiếm, Hà Nội, VIỆT NAM",105.853550,21.023973
7272637017843485142,4545454462185148383,fnb,Công ty Cổ Phần V-Food Việt Nam,"Số 20, Ngõ 145 Nguyễn Văn Cừ, Phường Ngọc Lâm, Quận Long Biên, Hà Nội, VIỆT NAM",Luôn Tươi Sạch Trần Nhật Duật,"92 Trần Nhật Duật, Phường Hàng Buồm, Quận Hoàn Kiếm, Hà Nội, VIỆT NAM",105.853735,21.03643
896239053579162138,539662094094672048,fnb,Thập Cẩm Canh Ma La - Tang,"17C Hàm Long, Phường Phan Chu Trinh, Quận Hoàn Kiếm, Hà Nội, VIỆT NAM",Thập Cẩm Canh Ma La - Tang 1,"17C Hàm Long, Phường Phan Chu Trinh, Quận Hoàn Kiếm, Hà Nội, VIỆT NAM",105.853971,21.018806
7129617946508210624,5154702762996229230,beverage,HỘ KINH DOANH LÊ GIA LONG,"34 Phố Nguyễn Hữu Huân, Phường Lý Thái Tổ, Quận Hoàn Kiếm, Hà Nội, VIỆT NAM",Sharetea Nguyễn Hữu Huân,"32 - 34 Nguyễn Hữu Huân, Phường Đồng Xuân, Quận Hoàn Kiếm, Hà Nội, VIỆT NAM",105.854288,21.034518
100459171840484639,8017355911288689549,fnb,Sumo Steak,"30 Nguyễn Hữu Huân, Phường Lý Thái Tổ, Quận Hoàn Kiếm, Hà Nội, VIỆT NAM",Sumo Steak 1,"30 Nguyễn Hữu Huân, Phường Lý Thái Tổ, Quận Hoàn Kiếm, Hà Nội, VIỆT NAM",105.854423,21.034533
2851494391888379716,380117279073809583,fnb,café Lâm 29,29 Nguyễn Hữu Huân,Café Lâm 29,29 Nguyễn Hữu Huân,105.8544818,21.034105
7272637017843485142,4346155640181372866,fnb,Công ty Cổ Phần V-Food Việt Nam,"Số 20, Ngõ 145 Nguyễn Văn Cừ, Phường Ngọc Lâm, Quận Long Biên, Hà Nội, VIỆT NAM",Luôn Tươi Sạch Hàng Muối,"22 Hàng Muối, Phường Lý Thái Tổ, Quận Hoàn Kiếm, Hà Nội, VIỆT NAM",105.8545986,21.0343788
6778625465845016942,2571940004127112456,food,Công Ty Cổ Phần Alfresco's Á Châu,"23L Hai Bà Trưng, Phường Đồng Xuân, Quận Hoàn Kiếm, Hà Nội, VIỆT NAM",Al Fresco's Hai Bà Trưng,"23L Hai Bà Trưng, Phường Cửa Nam, Quận Hoàn Kiếm, Hà Nội, VIỆT NAM",105.855280,21.024987
625946011894317895,8614242634718476680,fnb,Tarmi Mart,"Số 5 ngõ  Phan Chu Trinh, Phường Phan Chu Trinh, Quận Hoàn Kiếm, Hà Nội, VIỆT NAM",Tarmi Mart 1,"Số 5 ngõ Phan Chu Trinh, Phường Phan Chu Trinh, Quận Hoàn Kiếm, Hà Nội, VIỆT NAM",105.856402,21.019162
6889877656216293490,5009481075780179864,fnb,CÔNG TY TNHH O'DOUCEURS VIỆT NAM,"Số 91A Trần Hưng Đạo, Phường Cửa Nam, Quận Hoàn Kiếm, Hà Nội, VIỆT NAM",O'Douceurs Bakery,"8 Phan Chu Trinh, Tràng Tiền, Hoàn Kiếm, Hà Nội, Việt Nam",105.856495,21.0235112
5035507415958505338,7666121133643019814,fnb,Cafe Muối,"12 Tông Đản, Phường Tràng Tiền, Quận Hoàn Kiếm, Hà Nội, VIỆT NAM",Cafe Muối,"12 Tông Đản, Phường Tràng Tiền, Quận Hoàn Kiếm, Hà Nội, VIỆT NAM",105.8573436,21.0273917
3469740592050032385,8441805907250926137,fnb,Nguyễn Thị Hồng Quyên,"122 Lò Đúc, Phường Đống Mác, Quận Hai Bà Trưng, Hà Nội, VIỆT NAM",Bánh Canh Ghẹ Tươi,"122 Lò Đúc, Phường Đống Mác, Quận Hai Bà Trưng, Hà Nội, VIỆT NAM",105.858034,21.013065
5035507415958505338,7496386068612308287,fnb,Cafe Muối,"12 Tông Đản, Phường Tràng Tiền, Quận Hoàn Kiếm, Hà Nội, VIỆT NAM",Cafe Muối,"18A Lê Thánh Tông, Phường Phan Chu Trinh, Quận Hoàn Kiếm, Hà Nội, VIỆT NAM",105.858409,21.019997
2052689421326173229,675164573133755360,fnb,Coffee- cơm vp,"Số 2B-Lê Phụng Hiểu, Hoàn Kiếm, Hà Nội",coffee- cơm vp,"2B Lê Phụng Hiểu, Phường Tràng Tiền, Quận Hoàn Kiếm, Hà Nội, VIỆT NAM",105.8584679,21.0265187
1541760682999376676,4712493303835130520,fnb,Apsara Cafe,"Số 1 Phạm Ngũ Lão, Phường Phan Chu Trinh, Quận Hoàn Kiếm, Hà Nội, VIỆT NAM",Apsara Cafe1,"Số 1 Phạm Ngũ Lão, Phường Phan Chu Trinh, Quận Hoàn Kiếm, Hà Nội, VIỆT NAM",105.8591901,21.0243979
7909444155349751696,3217745807858256392,fnb,"Công ty TNHH Nông Nghiệp Hòn Đất ","11 Hoàng Văn Thái, Phường Khương Mai, Quận Thanh Xuân, Hà Nội, VIỆT NAM",Cửa Hàng Bác Tôm 190 Lò Đúc,"190 Lò Đúc, Đống Mác, Hai Bà Trưng, Hà Nội, Việt Nam",105.859865,21.0107259
6243076211879184331,1501507061910892280,fnb,MR GOOD TEA,"107A9 Mai Động, Phường Mai Động, Quận Hoàng Mai, Hà Nội, VIỆT NAM",MR GOOD TEA,"107A9 Mai Động, Phường Mai Động, Quận Hoàng Mai, Hà Nội, VIỆT NAM",105.8625069,20.991361
3232333568492323330,4699989066151321568,beverage,CN HÀ NỘI – Công ty TNHH Gongcha Việt Nam,"Số 63 Chùa Bộc, Phường Trung Liệt, Quận Đống Đa, Hà Nội",Gong Cha Times City,"Số 25, Ngõ 13 Lĩnh Mai, Phường Mai Động, Quận Hoàng Mai, Hà Nội, VIỆT NAM",105.864125,20.9911299
3232333568492323330,2311303192878717997,beverage,CN HÀ NỘI – Công ty TNHH Gongcha Việt Nam,"Số 63 Chùa Bộc, Phường Trung Liệt, Quận Đống Đa, Hà Nội",Gong Cha Times City,"Số 25, Ngõ 13 Lĩnh Nam, Phường Mai Động, Quận Hoàng Mai, Hà Nội, VIỆT NAM",105.865045,20.9910191
6778625465845016942,9189324074237802639,food,Công Ty Cổ Phần Alfresco's Á Châu,"23L Hai Bà Trưng, Phường Đồng Xuân, Quận Hoàn Kiếm, Hà Nội, VIỆT NAM",Pepperonis Time City,"458 Minh Khai, Phường Vĩnh Tuy, Quận Hai Bà Trưng, Hà Nội, VIỆT NAM",105.867471,20.995124
4719769865534913696,6443534620829232744,food,Công Ty TNHH Đức Nhân,"23L Hai Bà Trưng, Phường Đồng Xuân, Quận Hoàn Kiếm, Hà Nội, VIỆT NAM",Al Fresco's Times City,"458 Minh Khai, Phường Vĩnh Tuy, Quận Hai Bà Trưng, Hà Nội, VIỆT NAM",105.868069,20.994828
482004761482411756,6781737906808940064,null,CÔNG TY TNHH NANUM VIỆT NAM,"Tầng 29, tòa nhà Handico Phạm Hùng, PHƯỜNG MỄ TRÌ, Quận Nam Từ Liêm, Hà Nội, VIỆT NAM",Think Nature Vincom Times City,"TTTM Vincom Megamall Times city, khu đô thị Times city, số 458 Minh Khai, Phường Minh Khai, Quận Hai Bà Trưng, Hà Nội, VIỆT NAM",105.86807,20.9948166
7602277713859172296,6953212071558209159,beverage,CÔNG TY CỔ PHẦN KEM AN MINH,"77 Trần Nhân Tông, Phường 9, Quận 5, Thành Phố Hồ Chí Minh, VIỆT NAM",Swensen's Vincom Mega Mall Times City,"Hầm B1, Gian D9-5B, TTTM Vincom Mega Mall Times City, 458 Phố Minh Khai, Quận Hai Bà Trưng, Hà Nội, VIỆT NAM",105.8688265,20.9951016
5194616817579721435,5435478053077305740,fnb,Chè Sầu Liên,"630A Trường Chinh, Phường Khương Thượng, Quận Đống Đa, Hà Nội, VIỆT NAM",Chè Sầu Liên 233A Minh Khai,"233a Minh Khai, Hai Bà Trưng, Hà Nội, Việt Nam",105.8693465,21.0042536
5254081703095251062,6145003888579502105,other offline payment services,"CÔNG TY CỔ PHẦN THỂ THAO BOOTH 		BOOTH SPORT (VIETNAM) JOINT STOCK COMPANY","163 Phan Đăng Lưu, Phường 1, Quận Phú Nhuận, Thành phố Hồ Chí Minh",Supersport Times,"Tầng hầm B1, TTTM Times City 358 Minh Khai, Hai Bà Trưng, Hà Nội",105.869471,20.991730
1331731186241134178,1010798143194971735,other offline payment services,"CÔNG TY TNHH BÁN LẺ SAKUKO VIỆT NAM ","Tầng 4 tòa nhà Trung Yên Plaza Lô đất o17, khu đô thị Trung Yên, , Phường Trung Hoà, Quận Cầu Giấy, Hà Nội, VIỆT NAM",Sakuko Times City,"Tầng 1 Park II Times City ngõ 107  Khu đô thị Times City, Phường Mai Động, Quận Hoàng Mai, Hà Nội, VIỆT NAM",105.8707991,20.9879645
2651480655471329551,8286004503475066957,food,CÔNG TY CỔ PHẦN THƯƠNG MẠI HI-FOODS,"394  Bà Hạt, Phường 8, Quận 10, Thành Phố Hồ Chí Minh, VIỆT NAM",Bamboo Dimsum Aeon Mall Long Biên,"Số 27 Cổ Linh, Phường Long Biên, Quận Long Biên, Hà Nội, VIỆT NAM",105.8949001,21.0274577
7602277713859172296,4870751265970824160,beverage,CÔNG TY CỔ PHẦN KEM AN MINH,"77 Trần Nhân Tông, Phường 9, Quận 5, Thành Phố Hồ Chí Minh, VIỆT NAM",SW Aeon Long Biên,"T152, Tầng trệt  Aeon Mall Long Biên, Phường Long Biên, Quận Long Biên, Hà Nội, VIỆT NAM",105.8990103,21.0269901
8405759108835333857,8586674882889693108,food,Công Ty TNHH Bán Lẻ Sakuko Việt Nam,"Tầng 4, Tòa nhà Trung Yên Plaza Lô Đất O17, Khu đô thị Trung Yên, Phường Trung Hòa, Quận Cầu Giấy, Hà Nội, VIỆT NAM",Beard Papa's Aeon Mall,"No B311-1 Tầng 3 AEON MALL, 27 Cổ Linh, Long Biên, Hà Nội",105.8990103,21.0269901
5272997585295521260,8370019554633776254,beverage,"CÔNG TY TNHH THƯƠNG MẠI QUỐC TẾ  VƯỢNG HÀ ","43 Phó Đức Chính, Phường Trúc Bạch, Quận Ba Đình, Hà Nội, VIỆT NAM",Sharetea Cổ Linh,"Tầng 1 Aeon Mall Long Biên 27 đường Cổ Linh,, Phường Long Biên, Quận Long Biên, Hà Nội, VIỆT NAM",105.8990103,21.0269901
8431263805393422133,5390028361030947400,fnb,Banyan Tea,"117 Trâu Quỳ, Thị trấn Trâu Quỳ, Huyện Gia Lâm, Hà Nội, VIỆT NAM",banyantea2,"Phù Đổng 2 Phù Đổng, Xã Bát Tràng, Huyện Gia Lâm, Hà Nội, VIỆT NAM",105.963212,21.062018
5654538597012118714,3359787814263133642,beverage,Công Ty TNHH BoBapop,"115 Cao Thắng, Phường 11, Quận  10, TP.HCM",Bobapop 545 Lê Văn Phẩm,"Shop 6, TTTM BIG C Mỹ Tho, 545 Lê Văn Phẩm, Phường 5, Thành Phố Mỹ Tho, Tỉnh Tiền Giang, VIỆT NAM",106.3414412,10.358713
255344331244246119,7745032024360522922,beverage,Hộ kinh doanh Trà Kim Cương,"15 Hồng Bàng, Phường 1, Quận Bình Thạnh, Thành Phố Hồ Chí Minh, VIỆT NAM",Gong Cha Mỹ Tho,"212 Nam Kỳ Khởi Nghĩa, Phường 7, Thành phố Mỹ Tho, Tiền Giang, VIỆT NAM",106.3620813,10.3605249
4474770828003663379,1475357482338001217,beverage,CÔNG TY TNHH GONGCHA VIỆT NAM,"204/18  Nguyễn Văn Hưởng, Phường Thảo Điền, Quận 2, Thành Phố Hồ Chí Minh, VIỆT NAM",Gong Cha Long An,"Nhà phố shophouse PG 09 dự án Vinhome Tân An, Phường 2, Thành phố Tân An, Long An, VIỆT NAM",106.4103487,10.5342167
2976045368419517725,3489734833602344912,food,Công Ty TNHH Paris Baguette Việt Nam,"Số 01 Cao Thắng, Phường 2, Quận 3, Thành Phố Hồ Chí Minh, VIỆT NAM",Paris Baguette Scenic Valley 2,"B0.03, Khối nhà B Khu phố Scenic Valley 2 (Lô MD4-4), Phường Tân Phú, Quận 7, Thành Phố Hồ Chí Minh, VIỆT NAM",106.458256,11.1246502
5654538597012118714,5737656427551760115,beverage,Công Ty TNHH BoBapop,"115 Cao Thắng, Phường 11, Quận  10, TP.HCM",Bobapop Bến Lức,"61 Quốc Lộ 1A, khu phố 4, Thị trấn Bến Lức, Huyện Bến Lức, Tỉnh Long An, VIỆT NAM",106.4826726,10.6376888
5574105295340017131,973141473710795508,fnb,CÔNG TY CỔ PHẦN THƯƠNG MẠI DỊCH VỤ CHÀO NGÀY MỚI,"Lầu 4, Nguyễn Lâm Tower, 133 Dương Bá Trạc, Phường 1, Quận 8, Thành Phố Hồ Chí Minh, VIỆT NAM",BUMBA AEON MALL BÌNH TÂN,"Tầng 2, khu Food Court, SF17, Đại siêu thị AEON,01 17A, Phường Bình Trị Đông B, Quận Bình Tân, Thành Phố Hồ Chí Minh, VIỆT NAM",106.610831,10.7430547
2651480655471329551,7052472472018360765,food,CÔNG TY CỔ PHẦN THƯƠNG MẠI HI-FOODS,"394  Bà Hạt, Phường 8, Quận 10, Thành Phố Hồ Chí Minh, VIỆT NAM",Bamboo Dimsum Aeon Bình Tân,"Số 1 đường số 17A, khu phố 11, Phường Bình Trị Đông B, Quận Bình Tân, Thành Phố Hồ Chí Minh, VIỆT NAM",106.6119311,10.7427958
6813810437735499528,475941333886690434,fnb,CƠM NIÊU SINGAPORE,"694 Sư Vạn Hạnh, Phường 12, Quận 10, Thành Phố Hồ Chí Minh, VIỆT NAM",CƠM NIÊU THIÊN LÝ - Đường số 7,"120 Đường số 17, Phường Bình Trị Đông B, Quận Bình Tân, Thành Phố Hồ Chí Minh, VIỆT NAM",106.6136136,10.7444037
1324711243256079431,1006098733313595907,shopping,CÔNG TY TNHH ROUTINE VIỆT NAM,"68 Nguyễn Huệ, Phường Bến Nghé, Quận 1, TP Hồ Chí Minh",Routine Nguyễn Ảnh Thủ,"93/5 Nguyễn Ảnh Thủ, Xã Trung Chánh, huyện Hóc Môn, Tp. HCM",106.6139613,10.8653426
7662962602693264504,2038434822275087547,fnb,CÔNG TY CỔ PHẦN ẨM THỰC CUỐN VIỆT,"134/1 CÁCH MẠNG THÁNG 8, Phường 10, Quận 3, Thành Phố Hồ Chí Minh, VIỆT NAM",CUỐN VÀ CHẤM,"93 BIS NGUYỄN ÁNH THỦ, Phường Đa Kao, Quận 1, Thành Phố Hồ Chí Minh, VIỆT NAM",106.6143939,10.8658175
2984752121711150409,2386259914772202001,fnb,ĐẶNG CHÂU Ý NHI,"167 Bờ Bao Tân Thắng, Phường Sơn Kỳ, Quận Tân Phú, Thành Phố Hồ Chí Minh, VIỆT NAM",vivastar167bbtt1,"167 Bờ Bao Tân Thắng, Phường Sơn Kỳ, Quận Tân Phú, Thành Phố Hồ Chí Minh, VIỆT NAM",106.6145676,10.7997103
6601077103382916571,2849227932210561231,fnb,Nhà hàng Kem Ý EisRoma,"678 Sư Vạn Hạnh, Phường 12, Quận 10, Thành Phố Hồ Chí Minh, VIỆT NAM",Nhà Hàng Kem Ý EisRoma,"263-265 Vành Đai Trong, Phường Bình Trị Đông, Quận Bình Tân, Thành Phố Hồ Chí Minh, VIỆT NAM",106.6150242,10.750121
2444871135670595807,2237264495827836268,other offline payment services,CÔNG TY CỔ PHẦN THƯƠNG MẠI GLOBAL FASHION,"96 Cao Thắng, Phường 4, Quận 3, Thành Phố Hồ Chí Minh, VIỆT NAM",VAS - Lê Trọng Tấn,"716 Lê Trọng Tấn, Bình Hưng Hòa, Hồ Chí Minh, Việt Nam",106.6151695,10.8091952
2651480655471329551,7510124119739314827,food,CÔNG TY CỔ PHẦN THƯƠNG MẠI HI-FOODS,"394  Bà Hạt, Phường 8, Quận 10, Thành Phố Hồ Chí Minh, VIỆT NAM",Bamboo Dimsum Aeon Mall Tân Phú,"30 Bờ Bao Tân Thắng, Phường Sơn Kỳ, Quận Tân Phú, Thành Phố Hồ Chí Minh, VIỆT NAM",106.6175257,10.8016988
5574105295340017131,6550153271527408537,fnb,CÔNG TY CỔ PHẦN THƯƠNG MẠI DỊCH VỤ CHÀO NGÀY MỚI,"Lầu 4, Nguyễn Lâm Tower, 133 Dương Bá Trạc, Phường 1, Quận 8, Thành Phố Hồ Chí Minh, VIỆT NAM",BUMBA TÂN PHÚ,"300b Tân Kỳ Tân Quý, phường Sơn Kỳ, Tân Phú, Hồ Chí Minh, Việt Nam",106.6204581,10.7998783
2094705476432891136,3043089525850797443,beverage,Công Ty TNHH Cây Đào Đỏ,"257 Thống Nhất, Phường 11, Gò Vấp, Tp. HCM",I Love Kem Nguyễn Sơn,"313 Nguyễn Sơn , P.Phú Thạnh , Q.Tân Phú, Tp. HCM",106.622339," 10.784170"
2984752121711150409,1628374427971005750,fnb,ĐẶNG CHÂU Ý NHI,"167 Bờ Bao Tân Thắng, Phường Sơn Kỳ, Quận Tân Phú, Thành Phố Hồ Chí Minh, VIỆT NAM",vivastar200nht,"200 Nguyễn Hữu Tiến, Phường Tây Thạnh, Quận Tân Phú, Thành Phố Hồ Chí Minh, VIỆT NAM",106.6234434,10.813059
5233423985952720797,6989338700254407047,fnb,CÔNG TY TNHH SẢN XUẤT THƯƠNG MẠI CHẤN KHANG,"74 - 74b cao thắng, Phường 4, Quận 3, Thành Phố Hồ Chí Minh, VIỆT NAM",SWEETHOME BAKERY NS,"194 NGUYỄN SƠN, Phường Phú Thọ Hòa, Quận Tân Phú, Thành Phố Hồ Chí Minh, VIỆT NAM",106.6277288,10.7825441
7270982136367221864,5262469953517149901,fnb,Công ty TNHH Thương Mại Dịch Vụ Sản Xuất Hoa Hướng Dương,"116 Võ Thành Trang, Phường 11, Quận Tân Bình, Thành Phố Hồ Chí Minh, VIỆT NAM",Hoa Hướng Dương - Nguyễn Sơn,"168 Nguyễn Sơn, Phường Phú Thọ Hòa, Quận Tân Phú, Thành Phố Hồ Chí Minh, VIỆT NAM",106.628646,10.782354
2094705476432891136,7307965617398606368,beverage,Công Ty TNHH Cây Đào Đỏ,"257 Thống Nhất, Phường 11, Gò Vấp, Tp. HCM",I Love Kem Kinh Dương Vương,"127 Kinh Dương Vương , P.12  Q.6, Tp. HCM",106.628756,10.749432
5233423985952720797,9053812921623339446,fnb,CÔNG TY TNHH SẢN XUẤT THƯƠNG MẠI CHẤN KHANG,"74 - 74b cao thắng, Phường 4, Quận 3, Thành Phố Hồ Chí Minh, VIỆT NAM",SWEETHOME BAKERY HB,"177 HÒA BÌNH, Phường Hiệp Tân, Quận Tân Phú, Thành Phố Hồ Chí Minh, VIỆT NAM",106.6291429,10.7710578
4612140123734925274,6176580935961001587,beverage,Công ty TNHH TM DỊCH VỤ KINH DOANH TRUNG TUYẾN,"867A  Nguyễn Văn Quá, Phường Đông Hưng Thuận, Quận 12, Thành Phố Hồ Chí Minh, VIỆT NAM",Effoc Coffee Nguyễn Văn Quá,"96/3 Nguyễn Văn Quá, Phường Đông Hưng Thuận, Quận 12, Thành Phố Hồ Chí Minh, VIỆT NAM",106.629985,10.838567
5350129378332776599,1499611372182685347,beverage,CÔNG TY TNHH THƯƠNG MẠI QUỐC TẾ  VƯỢNG HÀ HỒ CHÍ MINH,"1B  HUỲNH KHÚC KHÁNG, Phường Bến Nghé, Quận 1, Thành Phố Hồ Chí Minh, VIỆT NAM",Sharetea Nguyễn Sơn,"69A Nguyễn Sơn, Phường Tân Quý, Quận Tân Phú, Thành Phố Hồ Chí Minh, VIỆT NAM",106.630247,10.781518
3315835320223835013,4571894443776610100,beverage,Công Ty TNHH Golden Trust,"79 Hồ Tùng Mậu, Phường Bến Nghé, Quận 1, Thành Phố Hồ Chí Minh, VIỆT NAM",Gongcha Nguyễn Sơn,"07 Nguyễn Sơn, Phường Phú Thạnh, Quận Tân Phú, Thành Phố Hồ Chí Minh, VIỆT NAM",106.6333217,10.7807768
2205467369627124822,1027719311153076483,null,Hộ kinh doanh TocoToco,"762 Nguyễn Văn Quá, Đông Hưng Thuận, Quận 12, Hồ Chí Minh, Việt Nam",TocoToco Nguyễn Văn Quá,"762 Nguyễn Văn Quá, phường Đông Hưng Thuận, Quận 12, Hồ Chí Minh, Việt Nam",106.6334017,10.8459229
2094705476432891136,7807881493972342049,beverage,Công Ty TNHH Cây Đào Đỏ,"257 Thống Nhất, Phường 11, Gò Vấp, Tp. HCM",I Love Kem Phan Huy Ích,"206 Phan Huy Ích , P.12 Q.Gò Vấp, Tp. HCM",106.635003,10.834573
